[
  {
    "detailId": 39,
    "projectCode": "G028",
    "dateStart": 2020,
    "dateEnd": 2026,
    "projectName": "Smallholder Agriculture Development Project II",
    "projectScale": "National",
    "projectNumLocations": 10,
    "beneficiaryNum": 79946,
    "beneficiaryNumLog": 4.9028,
    "beneficiaryUnits": "Farmers",
    "budget": 62000000,
    "budgetCurrency": "USD",
    "budgetEuro": 58771040,
    "budgetEuroLog": 7.7692,
    "locationId": "G028.10",
    "locationName": "Quthing District",
    "latitude": -30.3784,
    "longitude": 27.9753,
    "overlapLatLong": true,
    "country": "Lesotho",
    "latitude_jitter": -30.2885,
    "longitude_jitter": 27.9753
  },
  {
    "detailId": 48,
    "projectCode": "G029",
    "dateStart": 2019,
    "dateEnd": 2023,
    "projectName": "Strengthening Climate Services in Lesotho for Climate Resilient Development and Adaptation to Climate Change",
    "projectScale": "National",
    "projectNumLocations": 6,
    "beneficiaryNum": 900000,
    "beneficiaryNumLog": 5.9542,
    "beneficiaryUnits": "Individuals",
    "budget": 42000000,
    "budgetCurrency": "USD",
    "budgetEuro": 39812640,
    "budgetEuroLog": 7.6,
    "locationId": "G028.10",
    "locationName": "Quthing District",
    "latitude": -30.3784,
    "longitude": 27.9753,
    "overlapLatLong": true,
    "country": "Lesotho",
    "latitude_jitter": -30.4233,
    "longitude_jitter": 28.0656
  },
  {
    "detailId": 49,
    "projectCode": "G030",
    "dateStart": 2014,
    "dateEnd": 2023,
    "projectName": "Lesotho Wool and Mohair Promotion Project",
    "projectScale": "National",
    "projectNumLocations": 10,
    "beneficiaryNum": 250000,
    "beneficiaryNumLog": 5.3979,
    "beneficiaryUnits": "Households",
    "budget": 39700000,
    "budgetCurrency": "USD",
    "budgetEuro": 37632424,
    "budgetEuroLog": 7.5756,
    "locationId": "G028.10",
    "locationName": "Quthing District",
    "latitude": -30.3784,
    "longitude": 27.9753,
    "overlapLatLong": true,
    "country": "Lesotho",
    "latitude_jitter": -30.4233,
    "longitude_jitter": 27.885
  },
  {
    "detailId": 39,
    "projectCode": "G028",
    "dateStart": 2020,
    "dateEnd": 2026,
    "projectName": "Smallholder Agriculture Development Project II",
    "projectScale": "National",
    "projectNumLocations": 10,
    "beneficiaryNum": 79946,
    "beneficiaryNumLog": 4.9028,
    "beneficiaryUnits": "Farmers",
    "budget": 62000000,
    "budgetCurrency": "USD",
    "budgetEuro": 58771040,
    "budgetEuroLog": 7.7692,
    "locationId": "G028.9",
    "locationName": "Mohale's Hoek District",
    "latitude": -30.007,
    "longitude": 27.8327,
    "overlapLatLong": true,
    "country": "Lesotho",
    "latitude_jitter": -29.9171,
    "longitude_jitter": 27.8327
  },
  {
    "detailId": 49,
    "projectCode": "G030",
    "dateStart": 2014,
    "dateEnd": 2023,
    "projectName": "Lesotho Wool and Mohair Promotion Project",
    "projectScale": "National",
    "projectNumLocations": 10,
    "beneficiaryNum": 250000,
    "beneficiaryNumLog": 5.3979,
    "beneficiaryUnits": "Households",
    "budget": 39700000,
    "budgetCurrency": "USD",
    "budgetEuro": 37632424,
    "budgetEuroLog": 7.5756,
    "locationId": "G028.9",
    "locationName": "Mohale's Hoek District",
    "latitude": -30.007,
    "longitude": 27.8327,
    "overlapLatLong": true,
    "country": "Lesotho",
    "latitude_jitter": -30.0969,
    "longitude_jitter": 27.8327
  },
  {
    "detailId": 39,
    "projectCode": "G028",
    "dateStart": 2020,
    "dateEnd": 2026,
    "projectName": "Smallholder Agriculture Development Project II",
    "projectScale": "National",
    "projectNumLocations": 10,
    "beneficiaryNum": 79946,
    "beneficiaryNumLog": 4.9028,
    "beneficiaryUnits": "Farmers",
    "budget": 62000000,
    "budgetCurrency": "USD",
    "budgetEuro": 58771040,
    "budgetEuroLog": 7.7692,
    "locationId": "G028.3",
    "locationName": "Qacha's Nek District",
    "latitude": -29.982,
    "longitude": 28.7476,
    "overlapLatLong": true,
    "country": "Lesotho",
    "latitude_jitter": -29.8921,
    "longitude_jitter": 28.7476
  },
  {
    "detailId": 48,
    "projectCode": "G029",
    "dateStart": 2019,
    "dateEnd": 2023,
    "projectName": "Strengthening Climate Services in Lesotho for Climate Resilient Development and Adaptation to Climate Change",
    "projectScale": "National",
    "projectNumLocations": 6,
    "beneficiaryNum": 900000,
    "beneficiaryNumLog": 5.9542,
    "beneficiaryUnits": "Individuals",
    "budget": 42000000,
    "budgetCurrency": "USD",
    "budgetEuro": 39812640,
    "budgetEuroLog": 7.6,
    "locationId": "G028.3",
    "locationName": "Qacha's Nek District",
    "latitude": -29.982,
    "longitude": 28.7476,
    "overlapLatLong": true,
    "country": "Lesotho",
    "latitude_jitter": -29.982,
    "longitude_jitter": 28.8514
  },
  {
    "detailId": 49,
    "projectCode": "G030",
    "dateStart": 2014,
    "dateEnd": 2023,
    "projectName": "Lesotho Wool and Mohair Promotion Project",
    "projectScale": "National",
    "projectNumLocations": 10,
    "beneficiaryNum": 250000,
    "beneficiaryNumLog": 5.3979,
    "beneficiaryUnits": "Households",
    "budget": 39700000,
    "budgetCurrency": "USD",
    "budgetEuro": 37632424,
    "budgetEuroLog": 7.5756,
    "locationId": "G028.3",
    "locationName": "Qacha's Nek District",
    "latitude": -29.982,
    "longitude": 28.7476,
    "overlapLatLong": true,
    "country": "Lesotho",
    "latitude_jitter": -30.0719,
    "longitude_jitter": 28.7476
  },
  {
    "detailId": 217,
    "projectCode": "G093",
    "dateStart": 2021,
    "dateEnd": 2029,
    "projectName": "Regeneration of Landscapes and Livelihoods",
    "projectScale": "Subnational",
    "projectNumLocations": 6,
    "beneficiaryNum": 440000,
    "beneficiaryNumLog": 5.6435,
    "beneficiaryUnits": "Individuals",
    "budget": 46348000,
    "budgetCurrency": "USD",
    "budgetEuro": 43934196.16,
    "budgetEuroLog": 7.6428,
    "locationId": "G028.3",
    "locationName": "Qacha's Nek District",
    "latitude": -29.982,
    "longitude": 28.7476,
    "overlapLatLong": true,
    "country": "Lesotho",
    "latitude_jitter": -29.982,
    "longitude_jitter": 28.6438
  },
  {
    "detailId": 39,
    "projectCode": "G028",
    "dateStart": 2020,
    "dateEnd": 2026,
    "projectName": "Smallholder Agriculture Development Project II",
    "projectScale": "National",
    "projectNumLocations": 10,
    "beneficiaryNum": 79946,
    "beneficiaryNumLog": 4.9028,
    "beneficiaryUnits": "Farmers",
    "budget": 62000000,
    "budgetCurrency": "USD",
    "budgetEuro": 58771040,
    "budgetEuroLog": 7.7692,
    "locationId": "G028.4",
    "locationName": "Mafeteng District",
    "latitude": -29.7704,
    "longitude": 27.3964,
    "overlapLatLong": true,
    "country": "Lesotho",
    "latitude_jitter": -29.6805,
    "longitude_jitter": 27.3964
  },
  {
    "detailId": 48,
    "projectCode": "G029",
    "dateStart": 2019,
    "dateEnd": 2023,
    "projectName": "Strengthening Climate Services in Lesotho for Climate Resilient Development and Adaptation to Climate Change",
    "projectScale": "National",
    "projectNumLocations": 6,
    "beneficiaryNum": 900000,
    "beneficiaryNumLog": 5.9542,
    "beneficiaryUnits": "Individuals",
    "budget": 42000000,
    "budgetCurrency": "USD",
    "budgetEuro": 39812640,
    "budgetEuroLog": 7.6,
    "locationId": "G028.4",
    "locationName": "Mafeteng District",
    "latitude": -29.7704,
    "longitude": 27.3964,
    "overlapLatLong": true,
    "country": "Lesotho",
    "latitude_jitter": -29.7704,
    "longitude_jitter": 27.5
  },
  {
    "detailId": 49,
    "projectCode": "G030",
    "dateStart": 2014,
    "dateEnd": 2023,
    "projectName": "Lesotho Wool and Mohair Promotion Project",
    "projectScale": "National",
    "projectNumLocations": 10,
    "beneficiaryNum": 250000,
    "beneficiaryNumLog": 5.3979,
    "beneficiaryUnits": "Households",
    "budget": 39700000,
    "budgetCurrency": "USD",
    "budgetEuro": 37632424,
    "budgetEuroLog": 7.5756,
    "locationId": "G028.4",
    "locationName": "Mafeteng District",
    "latitude": -29.7704,
    "longitude": 27.3964,
    "overlapLatLong": true,
    "country": "Lesotho",
    "latitude_jitter": -29.8603,
    "longitude_jitter": 27.3964
  },
  {
    "detailId": 319,
    "projectCode": "L178",
    "dateStart": 2014,
    "dateEnd": 2019,
    "projectName": "Adaptation of Small-scale Agriculture",
    "projectScale": "Subnational",
    "projectNumLocations": 4,
    "beneficiaryNum": null,
    "beneficiaryNumLog": null,
    "beneficiaryUnits": null,
    "budget": 25746000,
    "budgetCurrency": "USD",
    "budgetEuro": 24405148.32,
    "budgetEuroLog": 7.3875,
    "locationId": "G028.4",
    "locationName": "Mafeteng District",
    "latitude": -29.7704,
    "longitude": 27.3964,
    "overlapLatLong": true,
    "country": "Lesotho",
    "latitude_jitter": -29.7704,
    "longitude_jitter": 27.2928
  },
  {
    "detailId": 39,
    "projectCode": "G028",
    "dateStart": 2020,
    "dateEnd": 2026,
    "projectName": "Smallholder Agriculture Development Project II",
    "projectScale": "National",
    "projectNumLocations": 10,
    "beneficiaryNum": 79946,
    "beneficiaryNumLog": 4.9028,
    "beneficiaryUnits": "Farmers",
    "budget": 62000000,
    "budgetCurrency": "USD",
    "budgetEuro": 58771040,
    "budgetEuroLog": 7.7692,
    "locationId": "G028.8",
    "locationName": "Maseru District",
    "latitude": -29.6096,
    "longitude": 27.844,
    "overlapLatLong": true,
    "country": "Lesotho",
    "latitude_jitter": -29.5197,
    "longitude_jitter": 27.844
  },
  {
    "detailId": 49,
    "projectCode": "G030",
    "dateStart": 2014,
    "dateEnd": 2023,
    "projectName": "Lesotho Wool and Mohair Promotion Project",
    "projectScale": "National",
    "projectNumLocations": 10,
    "beneficiaryNum": 250000,
    "beneficiaryNumLog": 5.3979,
    "beneficiaryUnits": "Households",
    "budget": 39700000,
    "budgetCurrency": "USD",
    "budgetEuro": 37632424,
    "budgetEuroLog": 7.5756,
    "locationId": "G028.8",
    "locationName": "Maseru District",
    "latitude": -29.6096,
    "longitude": 27.844,
    "overlapLatLong": true,
    "country": "Lesotho",
    "latitude_jitter": -29.6096,
    "longitude_jitter": 27.9474
  },
  {
    "detailId": 50,
    "projectCode": "G031",
    "dateStart": 2018,
    "dateEnd": 2022,
    "projectName": "Climate Change Adaptation for Sustainable Rural Water Supply in Lowlands Lesotho",
    "projectScale": "National",
    "projectNumLocations": 2,
    "beneficiaryNum": 65000,
    "beneficiaryNumLog": 4.8129,
    "beneficiaryUnits": "Individuals",
    "budget": 21676210,
    "budgetCurrency": "USD",
    "budgetEuro": 20547312.9832,
    "budgetEuroLog": 7.3128,
    "locationId": "G028.8",
    "locationName": "Maseru District",
    "latitude": -29.6096,
    "longitude": 27.844,
    "overlapLatLong": true,
    "country": "Lesotho",
    "latitude_jitter": -29.6995,
    "longitude_jitter": 27.844
  },
  {
    "detailId": 217,
    "projectCode": "G093",
    "dateStart": 2021,
    "dateEnd": 2029,
    "projectName": "Regeneration of Landscapes and Livelihoods",
    "projectScale": "Subnational",
    "projectNumLocations": 6,
    "beneficiaryNum": 440000,
    "beneficiaryNumLog": 5.6435,
    "beneficiaryUnits": "Individuals",
    "budget": 46348000,
    "budgetCurrency": "USD",
    "budgetEuro": 43934196.16,
    "budgetEuroLog": 7.6428,
    "locationId": "G028.8",
    "locationName": "Maseru District",
    "latitude": -29.6096,
    "longitude": 27.844,
    "overlapLatLong": true,
    "country": "Lesotho",
    "latitude_jitter": -29.6096,
    "longitude_jitter": 27.7406
  },
  {
    "detailId": 39,
    "projectCode": "G028",
    "dateStart": 2020,
    "dateEnd": 2026,
    "projectName": "Smallholder Agriculture Development Project II",
    "projectScale": "National",
    "projectNumLocations": 10,
    "beneficiaryNum": 79946,
    "beneficiaryNumLog": 4.9028,
    "beneficiaryUnits": "Farmers",
    "budget": 62000000,
    "budgetCurrency": "USD",
    "budgetEuro": 58771040,
    "budgetEuroLog": 7.7692,
    "locationId": "G028.2",
    "locationName": "Thaba-Tseka District",
    "latitude": -29.5201,
    "longitude": 28.6113,
    "overlapLatLong": true,
    "country": "Lesotho",
    "latitude_jitter": -29.4302,
    "longitude_jitter": 28.6113
  },
  {
    "detailId": 48,
    "projectCode": "G029",
    "dateStart": 2019,
    "dateEnd": 2023,
    "projectName": "Strengthening Climate Services in Lesotho for Climate Resilient Development and Adaptation to Climate Change",
    "projectScale": "National",
    "projectNumLocations": 6,
    "beneficiaryNum": 900000,
    "beneficiaryNumLog": 5.9542,
    "beneficiaryUnits": "Individuals",
    "budget": 42000000,
    "budgetCurrency": "USD",
    "budgetEuro": 39812640,
    "budgetEuroLog": 7.6,
    "locationId": "G028.2",
    "locationName": "Thaba-Tseka District",
    "latitude": -29.5201,
    "longitude": 28.6113,
    "overlapLatLong": true,
    "country": "Lesotho",
    "latitude_jitter": -29.5201,
    "longitude_jitter": 28.7146
  },
  {
    "detailId": 49,
    "projectCode": "G030",
    "dateStart": 2014,
    "dateEnd": 2023,
    "projectName": "Lesotho Wool and Mohair Promotion Project",
    "projectScale": "National",
    "projectNumLocations": 10,
    "beneficiaryNum": 250000,
    "beneficiaryNumLog": 5.3979,
    "beneficiaryUnits": "Households",
    "budget": 39700000,
    "budgetCurrency": "USD",
    "budgetEuro": 37632424,
    "budgetEuroLog": 7.5756,
    "locationId": "G028.2",
    "locationName": "Thaba-Tseka District",
    "latitude": -29.5201,
    "longitude": 28.6113,
    "overlapLatLong": true,
    "country": "Lesotho",
    "latitude_jitter": -29.61,
    "longitude_jitter": 28.6113
  },
  {
    "detailId": 217,
    "projectCode": "G093",
    "dateStart": 2021,
    "dateEnd": 2029,
    "projectName": "Regeneration of Landscapes and Livelihoods",
    "projectScale": "Subnational",
    "projectNumLocations": 6,
    "beneficiaryNum": 440000,
    "beneficiaryNumLog": 5.6435,
    "beneficiaryUnits": "Individuals",
    "budget": 46348000,
    "budgetCurrency": "USD",
    "budgetEuro": 43934196.16,
    "budgetEuroLog": 7.6428,
    "locationId": "G028.2",
    "locationName": "Thaba-Tseka District",
    "latitude": -29.5201,
    "longitude": 28.6113,
    "overlapLatLong": true,
    "country": "Lesotho",
    "latitude_jitter": -29.5201,
    "longitude_jitter": 28.508
  },
  {
    "detailId": 151,
    "projectCode": "L063",
    "dateStart": 2010,
    "dateEnd": 2018,
    "projectName": "CLIMATE CHANGE ADAPTATION IN THE LESOTHO HIGHLANDS",
    "projectScale": "Subnational",
    "projectNumLocations": 5,
    "beneficiaryNum": 3430,
    "beneficiaryNumLog": 3.5353,
    "beneficiaryUnits": "Individuals",
    "budget": null,
    "budgetCurrency": null,
    "budgetEuro": null,
    "budgetEuroLog": null,
    "locationId": "L063.1",
    "locationName": "Ha Tšiu",
    "latitude": -29.3222,
    "longitude": 27.5235,
    "overlapLatLong": false,
    "country": "Lesotho",
    "latitude_jitter": -29.3222,
    "longitude_jitter": 27.5235
  },
  {
    "detailId": 32,
    "projectCode": "G021",
    "dateStart": 2017,
    "dateEnd": 2021,
    "projectName": "Beyond the Static – Operationalizing Earth Observation Assisted Frameworks for Assessment and Monitoring of Ecosystem Health in IFAD ASAP Project Areas",
    "projectScale": "Regional",
    "projectNumLocations": 1,
    "beneficiaryNum": null,
    "beneficiaryNumLog": null,
    "beneficiaryUnits": null,
    "budget": 2000000,
    "budgetCurrency": "USD",
    "budgetEuro": 1895840,
    "budgetEuroLog": 6.2778,
    "locationId": "G021.1",
    "locationName": "Lesotho",
    "latitude": -29.3145,
    "longitude": 27.4787,
    "overlapLatLong": true,
    "country": "Lesotho",
    "latitude_jitter": -29.2246,
    "longitude_jitter": 27.4787
  },
  {
    "detailId": 33,
    "projectCode": "G022",
    "dateStart": 2018,
    "dateEnd": 2022,
    "projectName": "Undertaking a biophysical baseline survey and annual tracking of ecosystem health for the Kenya Cereal Enhancement Programme-Climate Resilient Agricultural Livelihoods window",
    "projectScale": "Regional",
    "projectNumLocations": 1,
    "beneficiaryNum": null,
    "beneficiaryNumLog": null,
    "beneficiaryUnits": null,
    "budget": 501520,
    "budgetCurrency": "USD",
    "budgetEuro": 475400.8384,
    "budgetEuroLog": 5.6771,
    "locationId": "G021.1",
    "locationName": "Lesotho",
    "latitude": -29.3145,
    "longitude": 27.4787,
    "overlapLatLong": true,
    "country": "Lesotho",
    "latitude_jitter": -29.2366,
    "longitude_jitter": 27.5302
  },
  {
    "detailId": 34,
    "projectCode": "G023",
    "dateStart": null,
    "dateEnd": null,
    "projectName": "LENAFU: Livestock",
    "projectScale": "National",
    "projectNumLocations": 1,
    "beneficiaryNum": null,
    "beneficiaryNumLog": null,
    "beneficiaryUnits": "Farmers",
    "budget": null,
    "budgetCurrency": null,
    "budgetEuro": null,
    "budgetEuroLog": null,
    "locationId": "G021.1",
    "locationName": "Lesotho",
    "latitude": -29.3145,
    "longitude": 27.4787,
    "overlapLatLong": true,
    "country": "Lesotho",
    "latitude_jitter": -29.2695,
    "longitude_jitter": 27.568
  },
  {
    "detailId": 35,
    "projectCode": "G024",
    "dateStart": null,
    "dateEnd": -1,
    "projectName": "LENAFU: Field Crops",
    "projectScale": "National",
    "projectNumLocations": 1,
    "beneficiaryNum": null,
    "beneficiaryNumLog": null,
    "beneficiaryUnits": "Farmers",
    "budget": null,
    "budgetCurrency": null,
    "budgetEuro": null,
    "budgetEuroLog": null,
    "locationId": "G021.1",
    "locationName": "Lesotho",
    "latitude": -29.3145,
    "longitude": 27.4787,
    "overlapLatLong": true,
    "country": "Lesotho",
    "latitude_jitter": -29.3145,
    "longitude_jitter": 27.5818
  },
  {
    "detailId": 36,
    "projectCode": "G025",
    "dateStart": null,
    "dateEnd": -1,
    "projectName": "LENAFU: Horticulture",
    "projectScale": "National",
    "projectNumLocations": 1,
    "beneficiaryNum": null,
    "beneficiaryNumLog": null,
    "beneficiaryUnits": "Farmers",
    "budget": null,
    "budgetCurrency": null,
    "budgetEuro": null,
    "budgetEuroLog": null,
    "locationId": "G021.1",
    "locationName": "Lesotho",
    "latitude": -29.3145,
    "longitude": 27.4787,
    "overlapLatLong": true,
    "country": "Lesotho",
    "latitude_jitter": -29.3594,
    "longitude_jitter": 27.5681
  },
  {
    "detailId": 37,
    "projectCode": "G026",
    "dateStart": null,
    "dateEnd": -1,
    "projectName": "LENAFU: Land Management",
    "projectScale": "National",
    "projectNumLocations": 1,
    "beneficiaryNum": null,
    "beneficiaryNumLog": null,
    "beneficiaryUnits": "Farmers",
    "budget": null,
    "budgetCurrency": null,
    "budgetEuro": null,
    "budgetEuroLog": null,
    "locationId": "G021.1",
    "locationName": "Lesotho",
    "latitude": -29.3145,
    "longitude": 27.4787,
    "overlapLatLong": true,
    "country": "Lesotho",
    "latitude_jitter": -29.3924,
    "longitude_jitter": 27.5303
  },
  {
    "detailId": 38,
    "projectCode": "G027",
    "dateStart": 2019,
    "dateEnd": 2026,
    "projectName": "Smallholder Agriculture Development Project - Phase II",
    "projectScale": "National",
    "projectNumLocations": 1,
    "beneficiaryNum": null,
    "beneficiaryNumLog": null,
    "beneficiaryUnits": "Farmers",
    "budget": 70500000,
    "budgetCurrency": "USD",
    "budgetEuro": 66828360,
    "budgetEuroLog": 7.825,
    "locationId": "G021.1",
    "locationName": "Lesotho",
    "latitude": -29.3145,
    "longitude": 27.4787,
    "overlapLatLong": true,
    "country": "Lesotho",
    "latitude_jitter": -29.4044,
    "longitude_jitter": 27.4787
  },
  {
    "detailId": 119,
    "projectCode": "G060",
    "dateStart": 2020,
    "dateEnd": 2023,
    "projectName": "AgriBusiness Facility for Africa",
    "projectScale": "Continental",
    "projectNumLocations": 10,
    "beneficiaryNum": null,
    "beneficiaryNumLog": null,
    "beneficiaryUnits": null,
    "budget": null,
    "budgetCurrency": null,
    "budgetEuro": null,
    "budgetEuroLog": null,
    "locationId": "G021.1",
    "locationName": "Lesotho",
    "latitude": -29.3145,
    "longitude": 27.4787,
    "overlapLatLong": true,
    "country": "Lesotho",
    "latitude_jitter": -29.3924,
    "longitude_jitter": 27.4271
  },
  {
    "detailId": 150,
    "projectCode": "L062",
    "dateStart": 2012,
    "dateEnd": 2015,
    "projectName": "Building Lesotho resilience through the upscale of Climate Smart Agriculture and functional DRR Land Resources Information",
    "projectScale": "Subnational",
    "projectNumLocations": 1,
    "beneficiaryNum": null,
    "beneficiaryNumLog": null,
    "beneficiaryUnits": null,
    "budget": null,
    "budgetCurrency": null,
    "budgetEuro": null,
    "budgetEuroLog": null,
    "locationId": "G021.1",
    "locationName": "Lesotho",
    "latitude": -29.3145,
    "longitude": 27.4787,
    "overlapLatLong": true,
    "country": "Lesotho",
    "latitude_jitter": -29.3594,
    "longitude_jitter": 27.3893
  },
  {
    "detailId": 152,
    "projectCode": "L064",
    "dateStart": 2016,
    "dateEnd": 2017,
    "projectName": "Building Resilience to Drought in Lesotho",
    "projectScale": "Subnational",
    "projectNumLocations": 1,
    "beneficiaryNum": 2905,
    "beneficiaryNumLog": 3.4631,
    "beneficiaryUnits": "Households",
    "budget": 500000,
    "budgetCurrency": "USD",
    "budgetEuro": 473960,
    "budgetEuroLog": 5.6757,
    "locationId": "G021.1",
    "locationName": "Lesotho",
    "latitude": -29.3145,
    "longitude": 27.4787,
    "overlapLatLong": true,
    "country": "Lesotho",
    "latitude_jitter": -29.3145,
    "longitude_jitter": 27.3756
  },
  {
    "detailId": 185,
    "projectCode": "G087",
    "dateStart": 2014,
    "dateEnd": null,
    "projectName": "African Risk Capacity",
    "projectScale": "Continental",
    "projectNumLocations": 8,
    "beneficiaryNum": 150000000,
    "beneficiaryNumLog": 8.1761,
    "beneficiaryUnits": "Individuals",
    "budget": 34000000,
    "budgetCurrency": "USD",
    "budgetEuro": 32229280,
    "budgetEuroLog": 7.5083,
    "locationId": "G021.1",
    "locationName": "Lesotho",
    "latitude": -29.3145,
    "longitude": 27.4787,
    "overlapLatLong": true,
    "country": "Lesotho",
    "latitude_jitter": -29.2695,
    "longitude_jitter": 27.3894
  },
  {
    "detailId": 320,
    "projectCode": "L179",
    "dateStart": 2020,
    "dateEnd": 2024,
    "projectName": "Improving adaptive capacity of vulnerable and food-insecure populations in Lesotho",
    "projectScale": "National",
    "projectNumLocations": 1,
    "beneficiaryNum": 215000,
    "beneficiaryNumLog": 5.3324,
    "beneficiaryUnits": "Individuals",
    "budget": 9999894,
    "budgetCurrency": "USD",
    "budgetEuro": 9479099.5205,
    "budgetEuroLog": 6.9768,
    "locationId": "G021.1",
    "locationName": "Lesotho",
    "latitude": -29.3145,
    "longitude": 27.4787,
    "overlapLatLong": true,
    "country": "Lesotho",
    "latitude_jitter": -29.2366,
    "longitude_jitter": 27.4272
  },
  {
    "detailId": 151,
    "projectCode": "L063",
    "dateStart": 2010,
    "dateEnd": 2018,
    "projectName": "CLIMATE CHANGE ADAPTATION IN THE LESOTHO HIGHLANDS",
    "projectScale": "Subnational",
    "projectNumLocations": 5,
    "beneficiaryNum": 3430,
    "beneficiaryNumLog": 3.5353,
    "beneficiaryUnits": "Individuals",
    "budget": null,
    "budgetCurrency": null,
    "budgetEuro": null,
    "budgetEuroLog": null,
    "locationId": "L063.4",
    "locationName": "Khokhoba",
    "latitude": -29.2892,
    "longitude": 28.2179,
    "overlapLatLong": false,
    "country": "Lesotho",
    "latitude_jitter": -29.2892,
    "longitude_jitter": 28.2179
  },
  {
    "detailId": 39,
    "projectCode": "G028",
    "dateStart": 2020,
    "dateEnd": 2026,
    "projectName": "Smallholder Agriculture Development Project II",
    "projectScale": "National",
    "projectNumLocations": 10,
    "beneficiaryNum": 79946,
    "beneficiaryNumLog": 4.9028,
    "beneficiaryUnits": "Farmers",
    "budget": 62000000,
    "budgetCurrency": "USD",
    "budgetEuro": 58771040,
    "budgetEuroLog": 7.7692,
    "locationId": "G028.1",
    "locationName": "Mokhotlong District",
    "latitude": -29.2858,
    "longitude": 29.0553,
    "overlapLatLong": true,
    "country": "Lesotho",
    "latitude_jitter": -29.1959,
    "longitude_jitter": 29.0553
  },
  {
    "detailId": 48,
    "projectCode": "G029",
    "dateStart": 2019,
    "dateEnd": 2023,
    "projectName": "Strengthening Climate Services in Lesotho for Climate Resilient Development and Adaptation to Climate Change",
    "projectScale": "National",
    "projectNumLocations": 6,
    "beneficiaryNum": 900000,
    "beneficiaryNumLog": 5.9542,
    "beneficiaryUnits": "Individuals",
    "budget": 42000000,
    "budgetCurrency": "USD",
    "budgetEuro": 39812640,
    "budgetEuroLog": 7.6,
    "locationId": "G028.1",
    "locationName": "Mokhotlong District",
    "latitude": -29.2858,
    "longitude": 29.0553,
    "overlapLatLong": true,
    "country": "Lesotho",
    "latitude_jitter": -29.3307,
    "longitude_jitter": 29.1446
  },
  {
    "detailId": 49,
    "projectCode": "G030",
    "dateStart": 2014,
    "dateEnd": 2023,
    "projectName": "Lesotho Wool and Mohair Promotion Project",
    "projectScale": "National",
    "projectNumLocations": 10,
    "beneficiaryNum": 250000,
    "beneficiaryNumLog": 5.3979,
    "beneficiaryUnits": "Households",
    "budget": 39700000,
    "budgetCurrency": "USD",
    "budgetEuro": 37632424,
    "budgetEuroLog": 7.5756,
    "locationId": "G028.1",
    "locationName": "Mokhotlong District",
    "latitude": -29.2858,
    "longitude": 29.0553,
    "overlapLatLong": true,
    "country": "Lesotho",
    "latitude_jitter": -29.3307,
    "longitude_jitter": 28.966
  },
  {
    "detailId": 39,
    "projectCode": "G028",
    "dateStart": 2020,
    "dateEnd": 2026,
    "projectName": "Smallholder Agriculture Development Project II",
    "projectScale": "National",
    "projectNumLocations": 10,
    "beneficiaryNum": 79946,
    "beneficiaryNumLog": 4.9028,
    "beneficiaryUnits": "Farmers",
    "budget": 62000000,
    "budgetCurrency": "USD",
    "budgetEuro": 58771040,
    "budgetEuroLog": 7.7692,
    "locationId": "G028.6",
    "locationName": "Berea District",
    "latitude": -29.1866,
    "longitude": 27.9183,
    "overlapLatLong": true,
    "country": "Lesotho",
    "latitude_jitter": -29.0967,
    "longitude_jitter": 27.9183
  },
  {
    "detailId": 49,
    "projectCode": "G030",
    "dateStart": 2014,
    "dateEnd": 2023,
    "projectName": "Lesotho Wool and Mohair Promotion Project",
    "projectScale": "National",
    "projectNumLocations": 10,
    "beneficiaryNum": 250000,
    "beneficiaryNumLog": 5.3979,
    "beneficiaryUnits": "Households",
    "budget": 39700000,
    "budgetCurrency": "USD",
    "budgetEuro": 37632424,
    "budgetEuroLog": 7.5756,
    "locationId": "G028.6",
    "locationName": "Berea District",
    "latitude": -29.1866,
    "longitude": 27.9183,
    "overlapLatLong": true,
    "country": "Lesotho",
    "latitude_jitter": -29.1588,
    "longitude_jitter": 28.0162
  },
  {
    "detailId": 50,
    "projectCode": "G031",
    "dateStart": 2018,
    "dateEnd": 2022,
    "projectName": "Climate Change Adaptation for Sustainable Rural Water Supply in Lowlands Lesotho",
    "projectScale": "National",
    "projectNumLocations": 2,
    "beneficiaryNum": 65000,
    "beneficiaryNumLog": 4.8129,
    "beneficiaryUnits": "Individuals",
    "budget": 21676210,
    "budgetCurrency": "USD",
    "budgetEuro": 20547312.9832,
    "budgetEuroLog": 7.3128,
    "locationId": "G028.6",
    "locationName": "Berea District",
    "latitude": -29.1866,
    "longitude": 27.9183,
    "overlapLatLong": true,
    "country": "Lesotho",
    "latitude_jitter": -29.2593,
    "longitude_jitter": 27.9789
  },
  {
    "detailId": 217,
    "projectCode": "G093",
    "dateStart": 2021,
    "dateEnd": 2029,
    "projectName": "Regeneration of Landscapes and Livelihoods",
    "projectScale": "Subnational",
    "projectNumLocations": 6,
    "beneficiaryNum": 440000,
    "beneficiaryNumLog": 5.6435,
    "beneficiaryUnits": "Individuals",
    "budget": 46348000,
    "budgetCurrency": "USD",
    "budgetEuro": 43934196.16,
    "budgetEuroLog": 7.6428,
    "locationId": "G028.6",
    "locationName": "Berea District",
    "latitude": -29.1866,
    "longitude": 27.9183,
    "overlapLatLong": true,
    "country": "Lesotho",
    "latitude_jitter": -29.2593,
    "longitude_jitter": 27.8577
  },
  {
    "detailId": 319,
    "projectCode": "L178",
    "dateStart": 2014,
    "dateEnd": 2019,
    "projectName": "Adaptation of Small-scale Agriculture",
    "projectScale": "Subnational",
    "projectNumLocations": 4,
    "beneficiaryNum": null,
    "beneficiaryNumLog": null,
    "beneficiaryUnits": null,
    "budget": 25746000,
    "budgetCurrency": "USD",
    "budgetEuro": 24405148.32,
    "budgetEuroLog": 7.3875,
    "locationId": "G028.6",
    "locationName": "Berea District",
    "latitude": -29.1866,
    "longitude": 27.9183,
    "overlapLatLong": true,
    "country": "Lesotho",
    "latitude_jitter": -29.1588,
    "longitude_jitter": 27.8204
  },
  {
    "detailId": 151,
    "projectCode": "L063",
    "dateStart": 2010,
    "dateEnd": 2018,
    "projectName": "CLIMATE CHANGE ADAPTATION IN THE LESOTHO HIGHLANDS",
    "projectScale": "Subnational",
    "projectNumLocations": 5,
    "beneficiaryNum": 3430,
    "beneficiaryNumLog": 3.5353,
    "beneficiaryUnits": "Individuals",
    "budget": null,
    "budgetCurrency": null,
    "budgetEuro": null,
    "budgetEuroLog": null,
    "locationId": "L063.2",
    "locationName": "Ha Setibi",
    "latitude": -29.1464,
    "longitude": 28.4814,
    "overlapLatLong": false,
    "country": "Lesotho",
    "latitude_jitter": -29.1464,
    "longitude_jitter": 28.4814
  },
  {
    "detailId": 39,
    "projectCode": "G028",
    "dateStart": 2020,
    "dateEnd": 2026,
    "projectName": "Smallholder Agriculture Development Project II",
    "projectScale": "National",
    "projectNumLocations": 10,
    "beneficiaryNum": 79946,
    "beneficiaryNumLog": 4.9028,
    "beneficiaryUnits": "Farmers",
    "budget": 62000000,
    "budgetCurrency": "USD",
    "budgetEuro": 58771040,
    "budgetEuroLog": 7.7692,
    "locationId": "G028.7",
    "locationName": "Leribe District",
    "latitude": -28.9907,
    "longitude": 28.289,
    "overlapLatLong": true,
    "country": "Lesotho",
    "latitude_jitter": -28.9008,
    "longitude_jitter": 28.289
  },
  {
    "detailId": 48,
    "projectCode": "G029",
    "dateStart": 2019,
    "dateEnd": 2023,
    "projectName": "Strengthening Climate Services in Lesotho for Climate Resilient Development and Adaptation to Climate Change",
    "projectScale": "National",
    "projectNumLocations": 6,
    "beneficiaryNum": 900000,
    "beneficiaryNumLog": 5.9542,
    "beneficiaryUnits": "Individuals",
    "budget": 42000000,
    "budgetCurrency": "USD",
    "budgetEuro": 39812640,
    "budgetEuroLog": 7.6,
    "locationId": "G028.7",
    "locationName": "Leribe District",
    "latitude": -28.9907,
    "longitude": 28.289,
    "overlapLatLong": true,
    "country": "Lesotho",
    "latitude_jitter": -28.9629,
    "longitude_jitter": 28.3868
  },
  {
    "detailId": 49,
    "projectCode": "G030",
    "dateStart": 2014,
    "dateEnd": 2023,
    "projectName": "Lesotho Wool and Mohair Promotion Project",
    "projectScale": "National",
    "projectNumLocations": 10,
    "beneficiaryNum": 250000,
    "beneficiaryNumLog": 5.3979,
    "beneficiaryUnits": "Households",
    "budget": 39700000,
    "budgetCurrency": "USD",
    "budgetEuro": 37632424,
    "budgetEuroLog": 7.5756,
    "locationId": "G028.7",
    "locationName": "Leribe District",
    "latitude": -28.9907,
    "longitude": 28.289,
    "overlapLatLong": true,
    "country": "Lesotho",
    "latitude_jitter": -29.0634,
    "longitude_jitter": 28.3495
  },
  {
    "detailId": 217,
    "projectCode": "G093",
    "dateStart": 2021,
    "dateEnd": 2029,
    "projectName": "Regeneration of Landscapes and Livelihoods",
    "projectScale": "Subnational",
    "projectNumLocations": 6,
    "beneficiaryNum": 440000,
    "beneficiaryNumLog": 5.6435,
    "beneficiaryUnits": "Individuals",
    "budget": 46348000,
    "budgetCurrency": "USD",
    "budgetEuro": 43934196.16,
    "budgetEuroLog": 7.6428,
    "locationId": "G028.7",
    "locationName": "Leribe District",
    "latitude": -28.9907,
    "longitude": 28.289,
    "overlapLatLong": true,
    "country": "Lesotho",
    "latitude_jitter": -29.0634,
    "longitude_jitter": 28.2285
  },
  {
    "detailId": 319,
    "projectCode": "L178",
    "dateStart": 2014,
    "dateEnd": 2019,
    "projectName": "Adaptation of Small-scale Agriculture",
    "projectScale": "Subnational",
    "projectNumLocations": 4,
    "beneficiaryNum": null,
    "beneficiaryNumLog": null,
    "beneficiaryUnits": null,
    "budget": 25746000,
    "budgetCurrency": "USD",
    "budgetEuro": 24405148.32,
    "budgetEuroLog": 7.3875,
    "locationId": "G028.7",
    "locationName": "Leribe District",
    "latitude": -28.9907,
    "longitude": 28.289,
    "overlapLatLong": true,
    "country": "Lesotho",
    "latitude_jitter": -28.9629,
    "longitude_jitter": 28.1912
  },
  {
    "detailId": 151,
    "projectCode": "L063",
    "dateStart": 2010,
    "dateEnd": 2018,
    "projectName": "CLIMATE CHANGE ADAPTATION IN THE LESOTHO HIGHLANDS",
    "projectScale": "Subnational",
    "projectNumLocations": 5,
    "beneficiaryNum": 3430,
    "beneficiaryNumLog": 3.5353,
    "beneficiaryUnits": "Individuals",
    "budget": null,
    "budgetCurrency": null,
    "budgetEuro": null,
    "budgetEuroLog": null,
    "locationId": "L063.3",
    "locationName": "Sepinare",
    "latitude": -28.9573,
    "longitude": 27.9433,
    "overlapLatLong": false,
    "country": "Lesotho",
    "latitude_jitter": -28.9573,
    "longitude_jitter": 27.9433
  },
  {
    "detailId": 39,
    "projectCode": "G028",
    "dateStart": 2020,
    "dateEnd": 2026,
    "projectName": "Smallholder Agriculture Development Project II",
    "projectScale": "National",
    "projectNumLocations": 10,
    "beneficiaryNum": 79946,
    "beneficiaryNumLog": 4.9028,
    "beneficiaryUnits": "Farmers",
    "budget": 62000000,
    "budgetCurrency": "USD",
    "budgetEuro": 58771040,
    "budgetEuroLog": 7.7692,
    "locationId": "G028.5",
    "locationName": "Butha-Buthe District",
    "latitude": -28.7883,
    "longitude": 28.5906,
    "overlapLatLong": true,
    "country": "Lesotho",
    "latitude_jitter": -28.6984,
    "longitude_jitter": 28.5906
  },
  {
    "detailId": 49,
    "projectCode": "G030",
    "dateStart": 2014,
    "dateEnd": 2023,
    "projectName": "Lesotho Wool and Mohair Promotion Project",
    "projectScale": "National",
    "projectNumLocations": 10,
    "beneficiaryNum": 250000,
    "beneficiaryNumLog": 5.3979,
    "beneficiaryUnits": "Households",
    "budget": 39700000,
    "budgetCurrency": "USD",
    "budgetEuro": 37632424,
    "budgetEuroLog": 7.5756,
    "locationId": "G028.5",
    "locationName": "Butha-Buthe District",
    "latitude": -28.7883,
    "longitude": 28.5906,
    "overlapLatLong": true,
    "country": "Lesotho",
    "latitude_jitter": -28.7883,
    "longitude_jitter": 28.6932
  },
  {
    "detailId": 217,
    "projectCode": "G093",
    "dateStart": 2021,
    "dateEnd": 2029,
    "projectName": "Regeneration of Landscapes and Livelihoods",
    "projectScale": "Subnational",
    "projectNumLocations": 6,
    "beneficiaryNum": 440000,
    "beneficiaryNumLog": 5.6435,
    "beneficiaryUnits": "Individuals",
    "budget": 46348000,
    "budgetCurrency": "USD",
    "budgetEuro": 43934196.16,
    "budgetEuroLog": 7.6428,
    "locationId": "G028.5",
    "locationName": "Butha-Buthe District",
    "latitude": -28.7883,
    "longitude": 28.5906,
    "overlapLatLong": true,
    "country": "Lesotho",
    "latitude_jitter": -28.8782,
    "longitude_jitter": 28.5906
  },
  {
    "detailId": 319,
    "projectCode": "L178",
    "dateStart": 2014,
    "dateEnd": 2019,
    "projectName": "Adaptation of Small-scale Agriculture",
    "projectScale": "Subnational",
    "projectNumLocations": 4,
    "beneficiaryNum": null,
    "beneficiaryNumLog": null,
    "beneficiaryUnits": null,
    "budget": 25746000,
    "budgetCurrency": "USD",
    "budgetEuro": 24405148.32,
    "budgetEuroLog": 7.3875,
    "locationId": "G028.5",
    "locationName": "Butha-Buthe District",
    "latitude": -28.7883,
    "longitude": 28.5906,
    "overlapLatLong": true,
    "country": "Lesotho",
    "latitude_jitter": -28.7883,
    "longitude_jitter": 28.488
  },
  {
    "detailId": 151,
    "projectCode": "L063",
    "dateStart": 2010,
    "dateEnd": 2018,
    "projectName": "CLIMATE CHANGE ADAPTATION IN THE LESOTHO HIGHLANDS",
    "projectScale": "Subnational",
    "projectNumLocations": 5,
    "beneficiaryNum": 3430,
    "beneficiaryNumLog": 3.5353,
    "beneficiaryUnits": "Individuals",
    "budget": null,
    "budgetCurrency": null,
    "budgetEuro": null,
    "budgetEuroLog": null,
    "locationId": "L063.5",
    "locationName": "Muela",
    "latitude": -28.7659,
    "longitude": 28.4551,
    "overlapLatLong": false,
    "country": "Lesotho",
    "latitude_jitter": -28.7659,
    "longitude_jitter": 28.4551
  },
  {
    "detailId": 58,
    "projectCode": "L012",
    "dateStart": 2020,
    "dateEnd": 2027,
    "projectName": "Building climate resilience of vulnerable agricultural livelihoods in southern Zimbabwe",
    "projectScale": "Subnational",
    "projectNumLocations": 15,
    "beneficiaryNum": 2300000,
    "beneficiaryNumLog": 6.3617,
    "beneficiaryUnits": "Individuals",
    "budget": 47818387,
    "budgetCurrency": "USD",
    "budgetEuro": 45328005.405,
    "budgetEuroLog": 7.6564,
    "locationId": "L012.10",
    "locationName": "Beitbridge",
    "latitude": -21.9248,
    "longitude": 30.0757,
    "overlapLatLong": true,
    "country": "Zimbabwe",
    "latitude_jitter": -21.8349,
    "longitude_jitter": 30.0757
  },
  {
    "detailId": 85,
    "projectCode": "G046",
    "dateStart": 2016,
    "dateEnd": 2024,
    "projectName": "Smallholder Irrigation Revitalization Programme",
    "projectScale": "National",
    "projectNumLocations": 22,
    "beneficiaryNum": 27700,
    "beneficiaryNumLog": 4.4425,
    "beneficiaryUnits": "Households",
    "budget": null,
    "budgetCurrency": null,
    "budgetEuro": null,
    "budgetEuroLog": null,
    "locationId": "L012.10",
    "locationName": "Beitbridge",
    "latitude": -21.9248,
    "longitude": 30.0757,
    "overlapLatLong": true,
    "country": "Zimbabwe",
    "latitude_jitter": -21.9697,
    "longitude_jitter": 30.1597
  },
  {
    "detailId": 91,
    "projectCode": "L025",
    "dateStart": 2020,
    "dateEnd": 2023,
    "projectName": "Adoption and scaling up of improved livestock production systems in Zimbabwe",
    "projectScale": "Subnational",
    "projectNumLocations": 9,
    "beneficiaryNum": null,
    "beneficiaryNumLog": null,
    "beneficiaryUnits": null,
    "budget": null,
    "budgetCurrency": null,
    "budgetEuro": null,
    "budgetEuroLog": null,
    "locationId": "L012.10",
    "locationName": "Beitbridge",
    "latitude": -21.9248,
    "longitude": 30.0757,
    "overlapLatLong": true,
    "country": "Zimbabwe",
    "latitude_jitter": -21.9697,
    "longitude_jitter": 29.9917
  },
  {
    "detailId": 58,
    "projectCode": "L012",
    "dateStart": 2020,
    "dateEnd": 2027,
    "projectName": "Building climate resilience of vulnerable agricultural livelihoods in southern Zimbabwe",
    "projectScale": "Subnational",
    "projectNumLocations": 15,
    "beneficiaryNum": 2300000,
    "beneficiaryNumLog": 6.3617,
    "beneficiaryUnits": "Individuals",
    "budget": 47818387,
    "budgetCurrency": "USD",
    "budgetEuro": 45328005.405,
    "budgetEuroLog": 7.6564,
    "locationId": "L012.9",
    "locationName": "Mwenezi",
    "latitude": -21.3933,
    "longitude": 30.5705,
    "overlapLatLong": true,
    "country": "Zimbabwe",
    "latitude_jitter": -21.3034,
    "longitude_jitter": 30.5705
  },
  {
    "detailId": 85,
    "projectCode": "G046",
    "dateStart": 2016,
    "dateEnd": 2024,
    "projectName": "Smallholder Irrigation Revitalization Programme",
    "projectScale": "National",
    "projectNumLocations": 22,
    "beneficiaryNum": 27700,
    "beneficiaryNumLog": 4.4425,
    "beneficiaryUnits": "Households",
    "budget": null,
    "budgetCurrency": null,
    "budgetEuro": null,
    "budgetEuroLog": null,
    "locationId": "L012.9",
    "locationName": "Mwenezi",
    "latitude": -21.3933,
    "longitude": 30.5705,
    "overlapLatLong": true,
    "country": "Zimbabwe",
    "latitude_jitter": -21.4832,
    "longitude_jitter": 30.5705
  },
  {
    "detailId": 58,
    "projectCode": "L012",
    "dateStart": 2020,
    "dateEnd": 2027,
    "projectName": "Building climate resilience of vulnerable agricultural livelihoods in southern Zimbabwe",
    "projectScale": "Subnational",
    "projectNumLocations": 15,
    "beneficiaryNum": 2300000,
    "beneficiaryNumLog": 6.3617,
    "beneficiaryUnits": "Individuals",
    "budget": 47818387,
    "budgetCurrency": "USD",
    "budgetEuro": 45328005.405,
    "budgetEuroLog": 7.6564,
    "locationId": "L012.11",
    "locationName": "Gwanda",
    "latitude": -21.3008,
    "longitude": 29.3998,
    "overlapLatLong": true,
    "country": "Zimbabwe",
    "latitude_jitter": -21.2109,
    "longitude_jitter": 29.3998
  },
  {
    "detailId": 85,
    "projectCode": "G046",
    "dateStart": 2016,
    "dateEnd": 2024,
    "projectName": "Smallholder Irrigation Revitalization Programme",
    "projectScale": "National",
    "projectNumLocations": 22,
    "beneficiaryNum": 27700,
    "beneficiaryNumLog": 4.4425,
    "beneficiaryUnits": "Households",
    "budget": null,
    "budgetCurrency": null,
    "budgetEuro": null,
    "budgetEuroLog": null,
    "locationId": "L012.11",
    "locationName": "Gwanda",
    "latitude": -21.3008,
    "longitude": 29.3998,
    "overlapLatLong": true,
    "country": "Zimbabwe",
    "latitude_jitter": -21.3457,
    "longitude_jitter": 29.4834
  },
  {
    "detailId": 91,
    "projectCode": "L025",
    "dateStart": 2020,
    "dateEnd": 2023,
    "projectName": "Adoption and scaling up of improved livestock production systems in Zimbabwe",
    "projectScale": "Subnational",
    "projectNumLocations": 9,
    "beneficiaryNum": null,
    "beneficiaryNumLog": null,
    "beneficiaryUnits": null,
    "budget": null,
    "budgetCurrency": null,
    "budgetEuro": null,
    "budgetEuroLog": null,
    "locationId": "L012.11",
    "locationName": "Gwanda",
    "latitude": -21.3008,
    "longitude": 29.3998,
    "overlapLatLong": true,
    "country": "Zimbabwe",
    "latitude_jitter": -21.3457,
    "longitude_jitter": 29.3162
  },
  {
    "detailId": 58,
    "projectCode": "L012",
    "dateStart": 2020,
    "dateEnd": 2027,
    "projectName": "Building climate resilience of vulnerable agricultural livelihoods in southern Zimbabwe",
    "projectScale": "Subnational",
    "projectNumLocations": 15,
    "beneficiaryNum": 2300000,
    "beneficiaryNumLog": 6.3617,
    "beneficiaryUnits": "Individuals",
    "budget": 47818387,
    "budgetCurrency": "USD",
    "budgetEuro": 45328005.405,
    "budgetEuroLog": 7.6564,
    "locationId": "L012.8",
    "locationName": "Chiredzi",
    "latitude": -21.1482,
    "longitude": 31.746,
    "overlapLatLong": true,
    "country": "Zimbabwe",
    "latitude_jitter": -21.0583,
    "longitude_jitter": 31.746
  },
  {
    "detailId": 59,
    "projectCode": "L013",
    "dateStart": 2015,
    "dateEnd": 2022,
    "projectName": "Coping with Drought and Climate change",
    "projectScale": "National",
    "projectNumLocations": 1,
    "beneficiaryNum": 1600,
    "beneficiaryNumLog": 3.2041,
    "beneficiaryUnits": "Farmers",
    "budget": 2143000,
    "budgetCurrency": "USD",
    "budgetEuro": 2031392.56,
    "budgetEuroLog": 6.3078,
    "locationId": "L012.8",
    "locationName": "Chiredzi",
    "latitude": -21.1482,
    "longitude": 31.746,
    "overlapLatLong": true,
    "country": "Zimbabwe",
    "latitude_jitter": -21.1482,
    "longitude_jitter": 31.8424
  },
  {
    "detailId": 85,
    "projectCode": "G046",
    "dateStart": 2016,
    "dateEnd": 2024,
    "projectName": "Smallholder Irrigation Revitalization Programme",
    "projectScale": "National",
    "projectNumLocations": 22,
    "beneficiaryNum": 27700,
    "beneficiaryNumLog": 4.4425,
    "beneficiaryUnits": "Households",
    "budget": null,
    "budgetCurrency": null,
    "budgetEuro": null,
    "budgetEuroLog": null,
    "locationId": "L012.8",
    "locationName": "Chiredzi",
    "latitude": -21.1482,
    "longitude": 31.746,
    "overlapLatLong": true,
    "country": "Zimbabwe",
    "latitude_jitter": -21.2381,
    "longitude_jitter": 31.746
  },
  {
    "detailId": 91,
    "projectCode": "L025",
    "dateStart": 2020,
    "dateEnd": 2023,
    "projectName": "Adoption and scaling up of improved livestock production systems in Zimbabwe",
    "projectScale": "Subnational",
    "projectNumLocations": 9,
    "beneficiaryNum": null,
    "beneficiaryNumLog": null,
    "beneficiaryUnits": null,
    "budget": null,
    "budgetCurrency": null,
    "budgetEuro": null,
    "budgetEuroLog": null,
    "locationId": "L012.8",
    "locationName": "Chiredzi",
    "latitude": -21.1482,
    "longitude": 31.746,
    "overlapLatLong": true,
    "country": "Zimbabwe",
    "latitude_jitter": -21.1482,
    "longitude_jitter": 31.6496
  },
  {
    "detailId": 58,
    "projectCode": "L012",
    "dateStart": 2020,
    "dateEnd": 2027,
    "projectName": "Building climate resilience of vulnerable agricultural livelihoods in southern Zimbabwe",
    "projectScale": "Subnational",
    "projectNumLocations": 15,
    "beneficiaryNum": 2300000,
    "beneficiaryNumLog": 6.3617,
    "beneficiaryUnits": "Individuals",
    "budget": 47818387,
    "budgetCurrency": "USD",
    "budgetEuro": 45328005.405,
    "budgetEuroLog": 7.6564,
    "locationId": "L012.12",
    "locationName": "Matobo",
    "latitude": -20.9439,
    "longitude": 28.5222,
    "overlapLatLong": true,
    "country": "Zimbabwe",
    "latitude_jitter": -20.854,
    "longitude_jitter": 28.5222
  },
  {
    "detailId": 85,
    "projectCode": "G046",
    "dateStart": 2016,
    "dateEnd": 2024,
    "projectName": "Smallholder Irrigation Revitalization Programme",
    "projectScale": "National",
    "projectNumLocations": 22,
    "beneficiaryNum": 27700,
    "beneficiaryNumLog": 4.4425,
    "beneficiaryUnits": "Households",
    "budget": null,
    "budgetCurrency": null,
    "budgetEuro": null,
    "budgetEuroLog": null,
    "locationId": "L012.12",
    "locationName": "Matobo",
    "latitude": -20.9439,
    "longitude": 28.5222,
    "overlapLatLong": true,
    "country": "Zimbabwe",
    "latitude_jitter": -21.0338,
    "longitude_jitter": 28.5222
  },
  {
    "detailId": 85,
    "projectCode": "G046",
    "dateStart": 2016,
    "dateEnd": 2024,
    "projectName": "Smallholder Irrigation Revitalization Programme",
    "projectScale": "National",
    "projectNumLocations": 22,
    "beneficiaryNum": 27700,
    "beneficiaryNumLog": 4.4425,
    "beneficiaryUnits": "Households",
    "budget": null,
    "budgetCurrency": null,
    "budgetEuro": null,
    "budgetEuroLog": null,
    "locationId": "G046.8",
    "locationName": "Mberengwa",
    "latitude": -20.7366,
    "longitude": 29.9319,
    "overlapLatLong": false,
    "country": "Zimbabwe",
    "latitude_jitter": -20.7366,
    "longitude_jitter": 29.9319
  },
  {
    "detailId": 58,
    "projectCode": "L012",
    "dateStart": 2020,
    "dateEnd": 2027,
    "projectName": "Building climate resilience of vulnerable agricultural livelihoods in southern Zimbabwe",
    "projectScale": "Subnational",
    "projectNumLocations": 15,
    "beneficiaryNum": 2300000,
    "beneficiaryNumLog": 6.3617,
    "beneficiaryUnits": "Individuals",
    "budget": 47818387,
    "budgetCurrency": "USD",
    "budgetEuro": 45328005.405,
    "budgetEuroLog": 7.6564,
    "locationId": "L012.15",
    "locationName": "Mangwe",
    "latitude": -20.5821,
    "longitude": 27.9817,
    "overlapLatLong": false,
    "country": "Zimbabwe",
    "latitude_jitter": -20.5821,
    "longitude_jitter": 27.9817
  },
  {
    "detailId": 85,
    "projectCode": "G046",
    "dateStart": 2016,
    "dateEnd": 2024,
    "projectName": "Smallholder Irrigation Revitalization Programme",
    "projectScale": "National",
    "projectNumLocations": 22,
    "beneficiaryNum": 27700,
    "beneficiaryNumLog": 4.4425,
    "beneficiaryUnits": "Households",
    "budget": null,
    "budgetCurrency": null,
    "budgetEuro": null,
    "budgetEuroLog": null,
    "locationId": "G046.5",
    "locationName": "Bulilima",
    "latitude": -20.5143,
    "longitude": 27.905,
    "overlapLatLong": false,
    "country": "Zimbabwe",
    "latitude_jitter": -20.5143,
    "longitude_jitter": 27.905
  },
  {
    "detailId": 58,
    "projectCode": "L012",
    "dateStart": 2020,
    "dateEnd": 2027,
    "projectName": "Building climate resilience of vulnerable agricultural livelihoods in southern Zimbabwe",
    "projectScale": "Subnational",
    "projectNumLocations": 15,
    "beneficiaryNum": 2300000,
    "beneficiaryNumLog": 6.3617,
    "beneficiaryUnits": "Individuals",
    "budget": 47818387,
    "budgetCurrency": "USD",
    "budgetEuro": 45328005.405,
    "budgetEuroLog": 7.6564,
    "locationId": "L012.7",
    "locationName": "Chivi",
    "latitude": -20.5095,
    "longitude": 30.519,
    "overlapLatLong": false,
    "country": "Zimbabwe",
    "latitude_jitter": -20.5095,
    "longitude_jitter": 30.519
  },
  {
    "detailId": 58,
    "projectCode": "L012",
    "dateStart": 2020,
    "dateEnd": 2027,
    "projectName": "Building climate resilience of vulnerable agricultural livelihoods in southern Zimbabwe",
    "projectScale": "Subnational",
    "projectNumLocations": 15,
    "beneficiaryNum": 2300000,
    "beneficiaryNumLog": 6.3617,
    "beneficiaryUnits": "Individuals",
    "budget": 47818387,
    "budgetCurrency": "USD",
    "budgetEuro": 45328005.405,
    "budgetEuroLog": 7.6564,
    "locationId": "L012.6",
    "locationName": "Zaka",
    "latitude": -20.4006,
    "longitude": 31.3741,
    "overlapLatLong": true,
    "country": "Zimbabwe",
    "latitude_jitter": -20.3107,
    "longitude_jitter": 31.3741
  },
  {
    "detailId": 85,
    "projectCode": "G046",
    "dateStart": 2016,
    "dateEnd": 2024,
    "projectName": "Smallholder Irrigation Revitalization Programme",
    "projectScale": "National",
    "projectNumLocations": 22,
    "beneficiaryNum": 27700,
    "beneficiaryNumLog": 4.4425,
    "beneficiaryUnits": "Households",
    "budget": null,
    "budgetCurrency": null,
    "budgetEuro": null,
    "budgetEuroLog": null,
    "locationId": "L012.6",
    "locationName": "Zaka",
    "latitude": -20.4006,
    "longitude": 31.3741,
    "overlapLatLong": true,
    "country": "Zimbabwe",
    "latitude_jitter": -20.4905,
    "longitude_jitter": 31.3741
  },
  {
    "detailId": 58,
    "projectCode": "L012",
    "dateStart": 2020,
    "dateEnd": 2027,
    "projectName": "Building climate resilience of vulnerable agricultural livelihoods in southern Zimbabwe",
    "projectScale": "Subnational",
    "projectNumLocations": 15,
    "beneficiaryNum": 2300000,
    "beneficiaryNumLog": 6.3617,
    "beneficiaryUnits": "Individuals",
    "budget": 47818387,
    "budgetCurrency": "USD",
    "budgetEuro": 45328005.405,
    "budgetEuroLog": 7.6564,
    "locationId": "L012.4",
    "locationName": "Masvingo",
    "latitude": -20.3024,
    "longitude": 30.9107,
    "overlapLatLong": true,
    "country": "Zimbabwe",
    "latitude_jitter": -20.2125,
    "longitude_jitter": 30.9107
  },
  {
    "detailId": 85,
    "projectCode": "G046",
    "dateStart": 2016,
    "dateEnd": 2024,
    "projectName": "Smallholder Irrigation Revitalization Programme",
    "projectScale": "National",
    "projectNumLocations": 22,
    "beneficiaryNum": 27700,
    "beneficiaryNumLog": 4.4425,
    "beneficiaryUnits": "Households",
    "budget": null,
    "budgetCurrency": null,
    "budgetEuro": null,
    "budgetEuroLog": null,
    "locationId": "L012.4",
    "locationName": "Masvingo",
    "latitude": -20.3024,
    "longitude": 30.9107,
    "overlapLatLong": true,
    "country": "Zimbabwe",
    "latitude_jitter": -20.3923,
    "longitude_jitter": 30.9107
  },
  {
    "detailId": 58,
    "projectCode": "L012",
    "dateStart": 2020,
    "dateEnd": 2027,
    "projectName": "Building climate resilience of vulnerable agricultural livelihoods in southern Zimbabwe",
    "projectScale": "Subnational",
    "projectNumLocations": 15,
    "beneficiaryNum": 2300000,
    "beneficiaryNumLog": 6.3617,
    "beneficiaryUnits": "Individuals",
    "budget": 47818387,
    "budgetCurrency": "USD",
    "budgetEuro": 45328005.405,
    "budgetEuroLog": 7.6564,
    "locationId": "L012.14",
    "locationName": "Umzingwane",
    "latitude": -20.2638,
    "longitude": 28.9895,
    "overlapLatLong": true,
    "country": "Zimbabwe",
    "latitude_jitter": -20.1739,
    "longitude_jitter": 28.9895
  },
  {
    "detailId": 85,
    "projectCode": "G046",
    "dateStart": 2016,
    "dateEnd": 2024,
    "projectName": "Smallholder Irrigation Revitalization Programme",
    "projectScale": "National",
    "projectNumLocations": 22,
    "beneficiaryNum": 27700,
    "beneficiaryNumLog": 4.4425,
    "beneficiaryUnits": "Households",
    "budget": null,
    "budgetCurrency": null,
    "budgetEuro": null,
    "budgetEuroLog": null,
    "locationId": "L012.14",
    "locationName": "Umzingwane",
    "latitude": -20.2638,
    "longitude": 28.9895,
    "overlapLatLong": true,
    "country": "Zimbabwe",
    "latitude_jitter": -20.3537,
    "longitude_jitter": 28.9895
  },
  {
    "detailId": 58,
    "projectCode": "L012",
    "dateStart": 2020,
    "dateEnd": 2027,
    "projectName": "Building climate resilience of vulnerable agricultural livelihoods in southern Zimbabwe",
    "projectScale": "Subnational",
    "projectNumLocations": 15,
    "beneficiaryNum": 2300000,
    "beneficiaryNumLog": 6.3617,
    "beneficiaryUnits": "Individuals",
    "budget": 47818387,
    "budgetCurrency": "USD",
    "budgetEuro": 45328005.405,
    "budgetEuroLog": 7.6564,
    "locationId": "L012.13",
    "locationName": "Insiza",
    "latitude": -20.2515,
    "longitude": 29.3757,
    "overlapLatLong": true,
    "country": "Zimbabwe",
    "latitude_jitter": -20.1616,
    "longitude_jitter": 29.3757
  },
  {
    "detailId": 85,
    "projectCode": "G046",
    "dateStart": 2016,
    "dateEnd": 2024,
    "projectName": "Smallholder Irrigation Revitalization Programme",
    "projectScale": "National",
    "projectNumLocations": 22,
    "beneficiaryNum": 27700,
    "beneficiaryNumLog": 4.4425,
    "beneficiaryUnits": "Households",
    "budget": null,
    "budgetCurrency": null,
    "budgetEuro": null,
    "budgetEuroLog": null,
    "locationId": "L012.13",
    "locationName": "Insiza",
    "latitude": -20.2515,
    "longitude": 29.3757,
    "overlapLatLong": true,
    "country": "Zimbabwe",
    "latitude_jitter": -20.3414,
    "longitude_jitter": 29.3757
  },
  {
    "detailId": 58,
    "projectCode": "L012",
    "dateStart": 2020,
    "dateEnd": 2027,
    "projectName": "Building climate resilience of vulnerable agricultural livelihoods in southern Zimbabwe",
    "projectScale": "Subnational",
    "projectNumLocations": 15,
    "beneficiaryNum": 2300000,
    "beneficiaryNumLog": 6.3617,
    "beneficiaryUnits": "Individuals",
    "budget": 47818387,
    "budgetCurrency": "USD",
    "budgetEuro": 45328005.405,
    "budgetEuroLog": 7.6564,
    "locationId": "L012.5",
    "locationName": "Bikita",
    "latitude": -20.2358,
    "longitude": 31.7998,
    "overlapLatLong": true,
    "country": "Zimbabwe",
    "latitude_jitter": -20.1459,
    "longitude_jitter": 31.7998
  },
  {
    "detailId": 85,
    "projectCode": "G046",
    "dateStart": 2016,
    "dateEnd": 2024,
    "projectName": "Smallholder Irrigation Revitalization Programme",
    "projectScale": "National",
    "projectNumLocations": 22,
    "beneficiaryNum": 27700,
    "beneficiaryNumLog": 4.4425,
    "beneficiaryUnits": "Households",
    "budget": null,
    "budgetCurrency": null,
    "budgetEuro": null,
    "budgetEuroLog": null,
    "locationId": "L012.5",
    "locationName": "Bikita",
    "latitude": -20.2358,
    "longitude": 31.7998,
    "overlapLatLong": true,
    "country": "Zimbabwe",
    "latitude_jitter": -20.3257,
    "longitude_jitter": 31.7998
  },
  {
    "detailId": 58,
    "projectCode": "L012",
    "dateStart": 2020,
    "dateEnd": 2027,
    "projectName": "Building climate resilience of vulnerable agricultural livelihoods in southern Zimbabwe",
    "projectScale": "Subnational",
    "projectNumLocations": 15,
    "beneficiaryNum": 2300000,
    "beneficiaryNumLog": 6.3617,
    "beneficiaryUnits": "Individuals",
    "budget": 47818387,
    "budgetCurrency": "USD",
    "budgetEuro": 45328005.405,
    "budgetEuroLog": 7.6564,
    "locationId": "L012.3",
    "locationName": "Chipinge",
    "latitude": -20.2306,
    "longitude": 32.6317,
    "overlapLatLong": true,
    "country": "Zimbabwe",
    "latitude_jitter": -20.1407,
    "longitude_jitter": 32.6317
  },
  {
    "detailId": 85,
    "projectCode": "G046",
    "dateStart": 2016,
    "dateEnd": 2024,
    "projectName": "Smallholder Irrigation Revitalization Programme",
    "projectScale": "National",
    "projectNumLocations": 22,
    "beneficiaryNum": 27700,
    "beneficiaryNumLog": 4.4425,
    "beneficiaryUnits": "Households",
    "budget": null,
    "budgetCurrency": null,
    "budgetEuro": null,
    "budgetEuroLog": null,
    "locationId": "L012.3",
    "locationName": "Chipinge",
    "latitude": -20.2306,
    "longitude": 32.6317,
    "overlapLatLong": true,
    "country": "Zimbabwe",
    "latitude_jitter": -20.3205,
    "longitude_jitter": 32.6317
  },
  {
    "detailId": 58,
    "projectCode": "L012",
    "dateStart": 2020,
    "dateEnd": 2027,
    "projectName": "Building climate resilience of vulnerable agricultural livelihoods in southern Zimbabwe",
    "projectScale": "Subnational",
    "projectNumLocations": 15,
    "beneficiaryNum": 2300000,
    "beneficiaryNumLog": 6.3617,
    "beneficiaryUnits": "Individuals",
    "budget": 47818387,
    "budgetCurrency": "USD",
    "budgetEuro": 45328005.405,
    "budgetEuroLog": 7.6564,
    "locationId": "L012.2",
    "locationName": "Chimanimani",
    "latitude": -19.9427,
    "longitude": 32.7537,
    "overlapLatLong": true,
    "country": "Zimbabwe",
    "latitude_jitter": -19.8528,
    "longitude_jitter": 32.7537
  },
  {
    "detailId": 85,
    "projectCode": "G046",
    "dateStart": 2016,
    "dateEnd": 2024,
    "projectName": "Smallholder Irrigation Revitalization Programme",
    "projectScale": "National",
    "projectNumLocations": 22,
    "beneficiaryNum": 27700,
    "beneficiaryNumLog": 4.4425,
    "beneficiaryUnits": "Households",
    "budget": null,
    "budgetCurrency": null,
    "budgetEuro": null,
    "budgetEuroLog": null,
    "locationId": "L012.2",
    "locationName": "Chimanimani",
    "latitude": -19.9427,
    "longitude": 32.7537,
    "overlapLatLong": true,
    "country": "Zimbabwe",
    "latitude_jitter": -20.0326,
    "longitude_jitter": 32.7537
  },
  {
    "detailId": 85,
    "projectCode": "G046",
    "dateStart": 2016,
    "dateEnd": 2024,
    "projectName": "Smallholder Irrigation Revitalization Programme",
    "projectScale": "National",
    "projectNumLocations": 22,
    "beneficiaryNum": 27700,
    "beneficiaryNumLog": 4.4425,
    "beneficiaryUnits": "Households",
    "budget": null,
    "budgetCurrency": null,
    "budgetEuro": null,
    "budgetEuroLog": null,
    "locationId": "G046.7",
    "locationName": "Shurugwi",
    "latitude": -19.6898,
    "longitude": 30.0695,
    "overlapLatLong": false,
    "country": "Zimbabwe",
    "latitude_jitter": -19.6898,
    "longitude_jitter": 30.0695
  },
  {
    "detailId": 58,
    "projectCode": "L012",
    "dateStart": 2020,
    "dateEnd": 2027,
    "projectName": "Building climate resilience of vulnerable agricultural livelihoods in southern Zimbabwe",
    "projectScale": "Subnational",
    "projectNumLocations": 15,
    "beneficiaryNum": 2300000,
    "beneficiaryNumLog": 6.3617,
    "beneficiaryUnits": "Individuals",
    "budget": 47818387,
    "budgetCurrency": "USD",
    "budgetEuro": 45328005.405,
    "budgetEuroLog": 7.6564,
    "locationId": "L012.1",
    "locationName": "Buhera",
    "latitude": -19.4666,
    "longitude": 31.9101,
    "overlapLatLong": true,
    "country": "Zimbabwe",
    "latitude_jitter": -19.3767,
    "longitude_jitter": 31.9101
  },
  {
    "detailId": 85,
    "projectCode": "G046",
    "dateStart": 2016,
    "dateEnd": 2024,
    "projectName": "Smallholder Irrigation Revitalization Programme",
    "projectScale": "National",
    "projectNumLocations": 22,
    "beneficiaryNum": 27700,
    "beneficiaryNumLog": 4.4425,
    "beneficiaryUnits": "Households",
    "budget": null,
    "budgetCurrency": null,
    "budgetEuro": null,
    "budgetEuroLog": null,
    "locationId": "L012.1",
    "locationName": "Buhera",
    "latitude": -19.4666,
    "longitude": 31.9101,
    "overlapLatLong": true,
    "country": "Zimbabwe",
    "latitude_jitter": -19.5115,
    "longitude_jitter": 31.9927
  },
  {
    "detailId": 91,
    "projectCode": "L025",
    "dateStart": 2020,
    "dateEnd": 2023,
    "projectName": "Adoption and scaling up of improved livestock production systems in Zimbabwe",
    "projectScale": "Subnational",
    "projectNumLocations": 9,
    "beneficiaryNum": null,
    "beneficiaryNumLog": null,
    "beneficiaryUnits": null,
    "budget": null,
    "budgetCurrency": null,
    "budgetEuro": null,
    "budgetEuroLog": null,
    "locationId": "L012.1",
    "locationName": "Buhera",
    "latitude": -19.4666,
    "longitude": 31.9101,
    "overlapLatLong": true,
    "country": "Zimbabwe",
    "latitude_jitter": -19.5115,
    "longitude_jitter": 31.8275
  },
  {
    "detailId": 85,
    "projectCode": "G046",
    "dateStart": 2016,
    "dateEnd": 2024,
    "projectName": "Smallholder Irrigation Revitalization Programme",
    "projectScale": "National",
    "projectNumLocations": 22,
    "beneficiaryNum": 27700,
    "beneficiaryNumLog": 4.4425,
    "beneficiaryUnits": "Households",
    "budget": null,
    "budgetCurrency": null,
    "budgetEuro": null,
    "budgetEuroLog": null,
    "locationId": "G046.6",
    "locationName": "Gweru",
    "latitude": -19.4572,
    "longitude": 29.8216,
    "overlapLatLong": false,
    "country": "Zimbabwe",
    "latitude_jitter": -19.4572,
    "longitude_jitter": 29.8216
  },
  {
    "detailId": 85,
    "projectCode": "G046",
    "dateStart": 2016,
    "dateEnd": 2024,
    "projectName": "Smallholder Irrigation Revitalization Programme",
    "projectScale": "National",
    "projectNumLocations": 22,
    "beneficiaryNum": 27700,
    "beneficiaryNumLog": 4.4425,
    "beneficiaryUnits": "Households",
    "budget": null,
    "budgetCurrency": null,
    "budgetEuro": null,
    "budgetEuroLog": null,
    "locationId": "G046.9",
    "locationName": "Mvuma",
    "latitude": -19.2763,
    "longitude": 30.5263,
    "overlapLatLong": false,
    "country": "Zimbabwe",
    "latitude_jitter": -19.2763,
    "longitude_jitter": 30.5263
  },
  {
    "detailId": 86,
    "projectCode": "L024",
    "dateStart": 2021,
    "dateEnd": 2027,
    "projectName": "Smallholder Agriculture Cluster Project",
    "projectScale": "Subnational",
    "projectNumLocations": 17,
    "beneficiaryNum": 78240,
    "beneficiaryNumLog": 4.8934,
    "beneficiaryUnits": "Households",
    "budget": 67440000,
    "budgetCurrency": "USD",
    "budgetEuro": 63927724.8,
    "budgetEuroLog": 7.8057,
    "locationId": "L024.6",
    "locationName": "Chirumhanza",
    "latitude": -19.2324,
    "longitude": 30.4431,
    "overlapLatLong": false,
    "country": "Zimbabwe",
    "latitude_jitter": -19.2324,
    "longitude_jitter": 30.4431
  },
  {
    "detailId": 57,
    "projectCode": "G034",
    "dateStart": 2021,
    "dateEnd": 2026,
    "projectName": "Building resilience through ecological intensification in Zimbabwe",
    "projectScale": "National",
    "projectNumLocations": 1,
    "beneficiaryNum": null,
    "beneficiaryNumLog": null,
    "beneficiaryUnits": null,
    "budget": 3320000,
    "budgetCurrency": "EUR",
    "budgetEuro": 3320000,
    "budgetEuroLog": 6.5211,
    "locationId": "G034.1",
    "locationName": "Zimbabwe",
    "latitude": -19.1837,
    "longitude": 29.8406,
    "overlapLatLong": true,
    "country": "Zimbabwe",
    "latitude_jitter": -19.0938,
    "longitude_jitter": 29.8406
  },
  {
    "detailId": 84,
    "projectCode": "L023",
    "dateStart": 2017,
    "dateEnd": 2019,
    "projectName": "Transforming Agriculture in Africa & Asia: What are the policy priorities?",
    "projectScale": "Global",
    "projectNumLocations": 4,
    "beneficiaryNum": null,
    "beneficiaryNumLog": null,
    "beneficiaryUnits": null,
    "budget": null,
    "budgetCurrency": null,
    "budgetEuro": null,
    "budgetEuroLog": null,
    "locationId": "G034.1",
    "locationName": "Zimbabwe",
    "latitude": -19.1837,
    "longitude": 29.8406,
    "overlapLatLong": true,
    "country": "Zimbabwe",
    "latitude_jitter": -19.1109,
    "longitude_jitter": 29.8965
  },
  {
    "detailId": 107,
    "projectCode": "L033",
    "dateStart": 2021,
    "dateEnd": 2025,
    "projectName": "Connecting knowledge, practice and policy in food systems transformation in Africa",
    "projectScale": "Regional",
    "projectNumLocations": 7,
    "beneficiaryNum": null,
    "beneficiaryNumLog": null,
    "beneficiaryUnits": null,
    "budget": 300000000,
    "budgetCurrency": "EUR",
    "budgetEuro": 300000000,
    "budgetEuroLog": 8.4771,
    "locationId": "G034.1",
    "locationName": "Zimbabwe",
    "latitude": -19.1837,
    "longitude": 29.8406,
    "overlapLatLong": true,
    "country": "Zimbabwe",
    "latitude_jitter": -19.1559,
    "longitude_jitter": 29.9311
  },
  {
    "detailId": 119,
    "projectCode": "G060",
    "dateStart": 2020,
    "dateEnd": 2023,
    "projectName": "AgriBusiness Facility for Africa",
    "projectScale": "Continental",
    "projectNumLocations": 10,
    "beneficiaryNum": null,
    "beneficiaryNumLog": null,
    "beneficiaryUnits": null,
    "budget": null,
    "budgetCurrency": null,
    "budgetEuro": null,
    "budgetEuroLog": null,
    "locationId": "G034.1",
    "locationName": "Zimbabwe",
    "latitude": -19.1837,
    "longitude": 29.8406,
    "overlapLatLong": true,
    "country": "Zimbabwe",
    "latitude_jitter": -19.2115,
    "longitude_jitter": 29.9312
  },
  {
    "detailId": 136,
    "projectCode": "L049",
    "dateStart": 2018,
    "dateEnd": 2021,
    "projectName": "Organisational Structures for SMAllholder REsilience",
    "projectScale": "Regional",
    "projectNumLocations": 2,
    "beneficiaryNum": 50000,
    "beneficiaryNumLog": 4.699,
    "beneficiaryUnits": "Farmers",
    "budget": null,
    "budgetCurrency": null,
    "budgetEuro": null,
    "budgetEuroLog": null,
    "locationId": "G034.1",
    "locationName": "Zimbabwe",
    "latitude": -19.1837,
    "longitude": 29.8406,
    "overlapLatLong": true,
    "country": "Zimbabwe",
    "latitude_jitter": -19.2564,
    "longitude_jitter": 29.8966
  },
  {
    "detailId": 142,
    "projectCode": "L055",
    "dateStart": 2019,
    "dateEnd": 2022,
    "projectName": "Agriculture résiliente, inclusive et entreprise durable",
    "projectScale": "Global",
    "projectNumLocations": 1,
    "beneficiaryNum": null,
    "beneficiaryNumLog": null,
    "beneficiaryUnits": null,
    "budget": 291130,
    "budgetCurrency": "EUR",
    "budgetEuro": 291130,
    "budgetEuroLog": 5.4641,
    "locationId": "G034.1",
    "locationName": "Zimbabwe",
    "latitude": -19.1837,
    "longitude": 29.8406,
    "overlapLatLong": true,
    "country": "Zimbabwe",
    "latitude_jitter": -19.2736,
    "longitude_jitter": 29.8406
  },
  {
    "detailId": 185,
    "projectCode": "G087",
    "dateStart": 2014,
    "dateEnd": null,
    "projectName": "African Risk Capacity",
    "projectScale": "Continental",
    "projectNumLocations": 8,
    "beneficiaryNum": 150000000,
    "beneficiaryNumLog": 8.1761,
    "beneficiaryUnits": "Individuals",
    "budget": 34000000,
    "budgetCurrency": "USD",
    "budgetEuro": 32229280,
    "budgetEuroLog": 7.5083,
    "locationId": "G034.1",
    "locationName": "Zimbabwe",
    "latitude": -19.1837,
    "longitude": 29.8406,
    "overlapLatLong": true,
    "country": "Zimbabwe",
    "latitude_jitter": -19.2564,
    "longitude_jitter": 29.7846
  },
  {
    "detailId": 243,
    "projectCode": "G104",
    "dateStart": 2014,
    "dateEnd": null,
    "projectName": "The African Risk Capacity Replica",
    "projectScale": "Continental",
    "projectNumLocations": 3,
    "beneficiaryNum": null,
    "beneficiaryNumLog": null,
    "beneficiaryUnits": null,
    "budget": null,
    "budgetCurrency": null,
    "budgetEuro": null,
    "budgetEuroLog": null,
    "locationId": "G034.1",
    "locationName": "Zimbabwe",
    "latitude": -19.1837,
    "longitude": 29.8406,
    "overlapLatLong": true,
    "country": "Zimbabwe",
    "latitude_jitter": -19.2115,
    "longitude_jitter": 29.75
  },
  {
    "detailId": 302,
    "projectCode": "L161",
    "dateStart": 2021,
    "dateEnd": -1,
    "projectName": "The R4 Rural Resilience Initiative",
    "projectScale": "Regional",
    "projectNumLocations": 3,
    "beneficiaryNum": 400000,
    "beneficiaryNumLog": 5.6021,
    "beneficiaryUnits": "Farmers",
    "budget": 4700000,
    "budgetCurrency": "USD",
    "budgetEuro": 4455224,
    "budgetEuroLog": 6.6489,
    "locationId": "G034.1",
    "locationName": "Zimbabwe",
    "latitude": -19.1837,
    "longitude": 29.8406,
    "overlapLatLong": true,
    "country": "Zimbabwe",
    "latitude_jitter": -19.1559,
    "longitude_jitter": 29.7501
  },
  {
    "detailId": 315,
    "projectCode": "L174",
    "dateStart": 2018,
    "dateEnd": 2021,
    "projectName": "Green Enterprise and Business Development Programme",
    "projectScale": "Subnational",
    "projectNumLocations": 1,
    "beneficiaryNum": null,
    "beneficiaryNumLog": null,
    "beneficiaryUnits": null,
    "budget": 784350,
    "budgetCurrency": "USD",
    "budgetEuro": 743501.052,
    "budgetEuroLog": 5.8713,
    "locationId": "G034.1",
    "locationName": "Zimbabwe",
    "latitude": -19.1837,
    "longitude": 29.8406,
    "overlapLatLong": true,
    "country": "Zimbabwe",
    "latitude_jitter": -19.1109,
    "longitude_jitter": 29.7847
  },
  {
    "detailId": 86,
    "projectCode": "L024",
    "dateStart": 2021,
    "dateEnd": 2027,
    "projectName": "Smallholder Agriculture Cluster Project",
    "projectScale": "Subnational",
    "projectNumLocations": 17,
    "beneficiaryNum": 78240,
    "beneficiaryNumLog": 4.8934,
    "beneficiaryUnits": "Households",
    "budget": 67440000,
    "budgetCurrency": "USD",
    "budgetEuro": 63927724.8,
    "budgetEuroLog": 7.8057,
    "locationId": "L024.4",
    "locationName": "Nkayi",
    "latitude": -19.0015,
    "longitude": 28.9006,
    "overlapLatLong": true,
    "country": "Zimbabwe",
    "latitude_jitter": -18.9116,
    "longitude_jitter": 28.9006
  },
  {
    "detailId": 91,
    "projectCode": "L025",
    "dateStart": 2020,
    "dateEnd": 2023,
    "projectName": "Adoption and scaling up of improved livestock production systems in Zimbabwe",
    "projectScale": "Subnational",
    "projectNumLocations": 9,
    "beneficiaryNum": null,
    "beneficiaryNumLog": null,
    "beneficiaryUnits": null,
    "budget": null,
    "budgetCurrency": null,
    "budgetEuro": null,
    "budgetEuroLog": null,
    "locationId": "L024.4",
    "locationName": "Nkayi",
    "latitude": -19.0015,
    "longitude": 28.9006,
    "overlapLatLong": true,
    "country": "Zimbabwe",
    "latitude_jitter": -19.0914,
    "longitude_jitter": 28.9006
  },
  {
    "detailId": 85,
    "projectCode": "G046",
    "dateStart": 2016,
    "dateEnd": 2024,
    "projectName": "Smallholder Irrigation Revitalization Programme",
    "projectScale": "National",
    "projectNumLocations": 22,
    "beneficiaryNum": 27700,
    "beneficiaryNumLog": 4.4425,
    "beneficiaryUnits": "Households",
    "budget": null,
    "budgetCurrency": null,
    "budgetEuro": null,
    "budgetEuroLog": null,
    "locationId": "G046.4",
    "locationName": "Mutare",
    "latitude": -18.9792,
    "longitude": 32.6469,
    "overlapLatLong": false,
    "country": "Zimbabwe",
    "latitude_jitter": -18.9792,
    "longitude_jitter": 32.6469
  },
  {
    "detailId": 86,
    "projectCode": "L024",
    "dateStart": 2021,
    "dateEnd": 2027,
    "projectName": "Smallholder Agriculture Cluster Project",
    "projectScale": "Subnational",
    "projectNumLocations": 17,
    "beneficiaryNum": 78240,
    "beneficiaryNumLog": 4.8934,
    "beneficiaryUnits": "Households",
    "budget": 67440000,
    "budgetCurrency": "USD",
    "budgetEuro": 63927724.8,
    "budgetEuroLog": 7.8057,
    "locationId": "L024.3",
    "locationName": "Lupane",
    "latitude": -18.9318,
    "longitude": 27.7618,
    "overlapLatLong": false,
    "country": "Zimbabwe",
    "latitude_jitter": -18.9318,
    "longitude_jitter": 27.7618
  },
  {
    "detailId": 86,
    "projectCode": "L024",
    "dateStart": 2021,
    "dateEnd": 2027,
    "projectName": "Smallholder Agriculture Cluster Project",
    "projectScale": "Subnational",
    "projectNumLocations": 17,
    "beneficiaryNum": 78240,
    "beneficiaryNumLog": 4.8934,
    "beneficiaryUnits": "Households",
    "budget": 67440000,
    "budgetCurrency": "USD",
    "budgetEuro": 63927724.8,
    "budgetEuroLog": 7.8057,
    "locationId": "L024.5",
    "locationName": "Kwekwe",
    "latitude": -18.8545,
    "longitude": 29.4128,
    "overlapLatLong": false,
    "country": "Zimbabwe",
    "latitude_jitter": -18.8545,
    "longitude_jitter": 29.4128
  },
  {
    "detailId": 86,
    "projectCode": "L024",
    "dateStart": 2021,
    "dateEnd": 2027,
    "projectName": "Smallholder Agriculture Cluster Project",
    "projectScale": "Subnational",
    "projectNumLocations": 17,
    "beneficiaryNum": 78240,
    "beneficiaryNumLog": 4.8934,
    "beneficiaryUnits": "Households",
    "budget": 67440000,
    "budgetCurrency": "USD",
    "budgetEuro": 63927724.8,
    "budgetEuroLog": 7.8057,
    "locationId": "L024.7",
    "locationName": "Sanyati",
    "latitude": -18.6602,
    "longitude": 29.7833,
    "overlapLatLong": false,
    "country": "Zimbabwe",
    "latitude_jitter": -18.6602,
    "longitude_jitter": 29.7833
  },
  {
    "detailId": 86,
    "projectCode": "L024",
    "dateStart": 2021,
    "dateEnd": 2027,
    "projectName": "Smallholder Agriculture Cluster Project",
    "projectScale": "Subnational",
    "projectNumLocations": 17,
    "beneficiaryNum": 78240,
    "beneficiaryNumLog": 4.8934,
    "beneficiaryUnits": "Households",
    "budget": 67440000,
    "budgetCurrency": "USD",
    "budgetEuro": 63927724.8,
    "budgetEuroLog": 7.8057,
    "locationId": "L024.1",
    "locationName": "Hwange",
    "latitude": -18.6569,
    "longitude": 26.5552,
    "overlapLatLong": true,
    "country": "Zimbabwe",
    "latitude_jitter": -18.567,
    "longitude_jitter": 26.5552
  },
  {
    "detailId": 91,
    "projectCode": "L025",
    "dateStart": 2020,
    "dateEnd": 2023,
    "projectName": "Adoption and scaling up of improved livestock production systems in Zimbabwe",
    "projectScale": "Subnational",
    "projectNumLocations": 9,
    "beneficiaryNum": null,
    "beneficiaryNumLog": null,
    "beneficiaryUnits": null,
    "budget": null,
    "budgetCurrency": null,
    "budgetEuro": null,
    "budgetEuroLog": null,
    "locationId": "L024.1",
    "locationName": "Hwange",
    "latitude": -18.6569,
    "longitude": 26.5552,
    "overlapLatLong": true,
    "country": "Zimbabwe",
    "latitude_jitter": -18.7468,
    "longitude_jitter": 26.5552
  },
  {
    "detailId": 85,
    "projectCode": "G046",
    "dateStart": 2016,
    "dateEnd": 2024,
    "projectName": "Smallholder Irrigation Revitalization Programme",
    "projectScale": "National",
    "projectNumLocations": 22,
    "beneficiaryNum": 27700,
    "beneficiaryNumLog": 4.4425,
    "beneficiaryUnits": "Households",
    "budget": null,
    "budgetCurrency": null,
    "budgetEuro": null,
    "budgetEuroLog": null,
    "locationId": "G046.2",
    "locationName": "Mutasa",
    "latitude": -18.6525,
    "longitude": 32.6935,
    "overlapLatLong": false,
    "country": "Zimbabwe",
    "latitude_jitter": -18.6525,
    "longitude_jitter": 32.6935
  },
  {
    "detailId": 86,
    "projectCode": "L024",
    "dateStart": 2021,
    "dateEnd": 2027,
    "projectName": "Smallholder Agriculture Cluster Project",
    "projectScale": "Subnational",
    "projectNumLocations": 17,
    "beneficiaryNum": 78240,
    "beneficiaryNumLog": 4.8934,
    "beneficiaryUnits": "Households",
    "budget": 67440000,
    "budgetCurrency": "USD",
    "budgetEuro": 63927724.8,
    "budgetEuroLog": 7.8057,
    "locationId": "L024.8",
    "locationName": "Mhondoro-Ngezi",
    "latitude": -18.6522,
    "longitude": 30.6151,
    "overlapLatLong": false,
    "country": "Zimbabwe",
    "latitude_jitter": -18.6522,
    "longitude_jitter": 30.6151
  },
  {
    "detailId": 85,
    "projectCode": "G046",
    "dateStart": 2016,
    "dateEnd": 2024,
    "projectName": "Smallholder Irrigation Revitalization Programme",
    "projectScale": "National",
    "projectNumLocations": 22,
    "beneficiaryNum": 27700,
    "beneficiaryNumLog": 4.4425,
    "beneficiaryUnits": "Households",
    "budget": null,
    "budgetCurrency": null,
    "budgetEuro": null,
    "budgetEuroLog": null,
    "locationId": "G046.1",
    "locationName": "Makoni",
    "latitude": -18.2176,
    "longitude": 32.0654,
    "overlapLatLong": false,
    "country": "Zimbabwe",
    "latitude_jitter": -18.2176,
    "longitude_jitter": 32.0654
  },
  {
    "detailId": 91,
    "projectCode": "L025",
    "dateStart": 2020,
    "dateEnd": 2023,
    "projectName": "Adoption and scaling up of improved livestock production systems in Zimbabwe",
    "projectScale": "Subnational",
    "projectNumLocations": 9,
    "beneficiaryNum": null,
    "beneficiaryNumLog": null,
    "beneficiaryUnits": null,
    "budget": null,
    "budgetCurrency": null,
    "budgetEuro": null,
    "budgetEuroLog": null,
    "locationId": "L025.7",
    "locationName": "Gokwe",
    "latitude": -18.2094,
    "longitude": 28.7166,
    "overlapLatLong": false,
    "country": "Zimbabwe",
    "latitude_jitter": -18.2094,
    "longitude_jitter": 28.7166
  },
  {
    "detailId": 86,
    "projectCode": "L024",
    "dateStart": 2021,
    "dateEnd": 2027,
    "projectName": "Smallholder Agriculture Cluster Project",
    "projectScale": "Subnational",
    "projectNumLocations": 17,
    "beneficiaryNum": 78240,
    "beneficiaryNumLog": 4.8934,
    "beneficiaryUnits": "Households",
    "budget": 67440000,
    "budgetCurrency": "USD",
    "budgetEuro": 63927724.8,
    "budgetEuroLog": 7.8057,
    "locationId": "L024.18",
    "locationName": "Kushinga",
    "latitude": -18.1431,
    "longitude": 31.6625,
    "overlapLatLong": false,
    "country": "Zimbabwe",
    "latitude_jitter": -18.1431,
    "longitude_jitter": 31.6625
  },
  {
    "detailId": 85,
    "projectCode": "G046",
    "dateStart": 2016,
    "dateEnd": 2024,
    "projectName": "Smallholder Irrigation Revitalization Programme",
    "projectScale": "National",
    "projectNumLocations": 22,
    "beneficiaryNum": 27700,
    "beneficiaryNumLog": 4.4425,
    "beneficiaryUnits": "Households",
    "budget": null,
    "budgetCurrency": null,
    "budgetEuro": null,
    "budgetEuroLog": null,
    "locationId": "G046.3",
    "locationName": "Nyanga",
    "latitude": -17.8771,
    "longitude": 32.6648,
    "overlapLatLong": false,
    "country": "Zimbabwe",
    "latitude_jitter": -17.8771,
    "longitude_jitter": 32.6648
  },
  {
    "detailId": 86,
    "projectCode": "L024",
    "dateStart": 2021,
    "dateEnd": 2027,
    "projectName": "Smallholder Agriculture Cluster Project",
    "projectScale": "Subnational",
    "projectNumLocations": 17,
    "beneficiaryNum": 78240,
    "beneficiaryNumLog": 4.8934,
    "beneficiaryUnits": "Households",
    "budget": 67440000,
    "budgetCurrency": "USD",
    "budgetEuro": 63927724.8,
    "budgetEuroLog": 7.8057,
    "locationId": "L024.12",
    "locationName": "Murewha",
    "latitude": -17.7592,
    "longitude": 31.8168,
    "overlapLatLong": false,
    "country": "Zimbabwe",
    "latitude_jitter": -17.7592,
    "longitude_jitter": 31.8168
  },
  {
    "detailId": 86,
    "projectCode": "L024",
    "dateStart": 2021,
    "dateEnd": 2027,
    "projectName": "Smallholder Agriculture Cluster Project",
    "projectScale": "Subnational",
    "projectNumLocations": 17,
    "beneficiaryNum": 78240,
    "beneficiaryNumLog": 4.8934,
    "beneficiaryUnits": "Households",
    "budget": 67440000,
    "budgetCurrency": "USD",
    "budgetEuro": 63927724.8,
    "budgetEuroLog": 7.8057,
    "locationId": "L024.11",
    "locationName": "Goromonzi",
    "latitude": -17.7462,
    "longitude": 31.3734,
    "overlapLatLong": false,
    "country": "Zimbabwe",
    "latitude_jitter": -17.7462,
    "longitude_jitter": 31.3734
  },
  {
    "detailId": 86,
    "projectCode": "L024",
    "dateStart": 2021,
    "dateEnd": 2027,
    "projectName": "Smallholder Agriculture Cluster Project",
    "projectScale": "Subnational",
    "projectNumLocations": 17,
    "beneficiaryNum": 78240,
    "beneficiaryNumLog": 4.8934,
    "beneficiaryUnits": "Households",
    "budget": 67440000,
    "budgetCurrency": "USD",
    "budgetEuro": 63927724.8,
    "budgetEuroLog": 7.8057,
    "locationId": "L024.2",
    "locationName": "Binga",
    "latitude": -17.6199,
    "longitude": 27.3439,
    "overlapLatLong": true,
    "country": "Zimbabwe",
    "latitude_jitter": -17.53,
    "longitude_jitter": 27.3439
  },
  {
    "detailId": 91,
    "projectCode": "L025",
    "dateStart": 2020,
    "dateEnd": 2023,
    "projectName": "Adoption and scaling up of improved livestock production systems in Zimbabwe",
    "projectScale": "Subnational",
    "projectNumLocations": 9,
    "beneficiaryNum": null,
    "beneficiaryNumLog": null,
    "beneficiaryUnits": null,
    "budget": null,
    "budgetCurrency": null,
    "budgetEuro": null,
    "budgetEuroLog": null,
    "locationId": "L024.2",
    "locationName": "Binga",
    "latitude": -17.6199,
    "longitude": 27.3439,
    "overlapLatLong": true,
    "country": "Zimbabwe",
    "latitude_jitter": -17.7098,
    "longitude_jitter": 27.3439
  },
  {
    "detailId": 86,
    "projectCode": "L024",
    "dateStart": 2021,
    "dateEnd": 2027,
    "projectName": "Smallholder Agriculture Cluster Project",
    "projectScale": "Subnational",
    "projectNumLocations": 17,
    "beneficiaryNum": 78240,
    "beneficiaryNumLog": 4.8934,
    "beneficiaryUnits": "Households",
    "budget": 67440000,
    "budgetCurrency": "USD",
    "budgetEuro": 63927724.8,
    "budgetEuroLog": 7.8057,
    "locationId": "L024.13",
    "locationName": "Mutoko",
    "latitude": -17.3246,
    "longitude": 32.1856,
    "overlapLatLong": true,
    "country": "Zimbabwe",
    "latitude_jitter": -17.2347,
    "longitude_jitter": 32.1856
  },
  {
    "detailId": 91,
    "projectCode": "L025",
    "dateStart": 2020,
    "dateEnd": 2023,
    "projectName": "Adoption and scaling up of improved livestock production systems in Zimbabwe",
    "projectScale": "Subnational",
    "projectNumLocations": 9,
    "beneficiaryNum": null,
    "beneficiaryNumLog": null,
    "beneficiaryUnits": null,
    "budget": null,
    "budgetCurrency": null,
    "budgetEuro": null,
    "budgetEuroLog": null,
    "locationId": "L024.13",
    "locationName": "Mutoko",
    "latitude": -17.3246,
    "longitude": 32.1856,
    "overlapLatLong": true,
    "country": "Zimbabwe",
    "latitude_jitter": -17.4145,
    "longitude_jitter": 32.1856
  },
  {
    "detailId": 86,
    "projectCode": "L024",
    "dateStart": 2021,
    "dateEnd": 2027,
    "projectName": "Smallholder Agriculture Cluster Project",
    "projectScale": "Subnational",
    "projectNumLocations": 17,
    "beneficiaryNum": 78240,
    "beneficiaryNumLog": 4.8934,
    "beneficiaryUnits": "Households",
    "budget": 67440000,
    "budgetCurrency": "USD",
    "budgetEuro": 63927724.8,
    "budgetEuroLog": 7.8057,
    "locationId": "L024.10",
    "locationName": "Zvimba",
    "latitude": -17.3239,
    "longitude": 30.4208,
    "overlapLatLong": false,
    "country": "Zimbabwe",
    "latitude_jitter": -17.3239,
    "longitude_jitter": 30.4208
  },
  {
    "detailId": 86,
    "projectCode": "L024",
    "dateStart": 2021,
    "dateEnd": 2027,
    "projectName": "Smallholder Agriculture Cluster Project",
    "projectScale": "Subnational",
    "projectNumLocations": 17,
    "beneficiaryNum": 78240,
    "beneficiaryNumLog": 4.8934,
    "beneficiaryUnits": "Households",
    "budget": 67440000,
    "budgetCurrency": "USD",
    "budgetEuro": 63927724.8,
    "budgetEuroLog": 7.8057,
    "locationId": "L024.15",
    "locationName": "Shamva",
    "latitude": -17.3053,
    "longitude": 31.556,
    "overlapLatLong": false,
    "country": "Zimbabwe",
    "latitude_jitter": -17.3053,
    "longitude_jitter": 31.556
  },
  {
    "detailId": 61,
    "projectCode": "L014",
    "dateStart": 2018,
    "dateEnd": 2025,
    "projectName": "Strengthening climate resilience of agricultural livelihoods in Agro-Ecological Regions I and II in Zambia",
    "projectScale": "National",
    "projectNumLocations": 16,
    "beneficiaryNum": 3000000,
    "beneficiaryNumLog": 6.4771,
    "beneficiaryUnits": "Individuals",
    "budget": 137000000,
    "budgetCurrency": "USD",
    "budgetEuro": 129865040,
    "budgetEuroLog": 8.1135,
    "locationId": "L014.9",
    "locationName": "Kazungula",
    "latitude": -17.1572,
    "longitude": 25.6378,
    "overlapLatLong": true,
    "country": "Zambia",
    "latitude_jitter": -17.0673,
    "longitude_jitter": 25.6378
  },
  {
    "detailId": 79,
    "projectCode": "L021",
    "dateStart": 2017,
    "dateEnd": 2021,
    "projectName": "Africa Research in Sustainable Intensification for the Next Generation Phase II",
    "projectScale": "Regional",
    "projectNumLocations": 13,
    "beneficiaryNum": null,
    "beneficiaryNumLog": null,
    "beneficiaryUnits": null,
    "budget": 50000000,
    "budgetCurrency": "USD",
    "budgetEuro": 47396000,
    "budgetEuroLog": 7.6757,
    "locationId": "L014.9",
    "locationName": "Kazungula",
    "latitude": -17.1572,
    "longitude": 25.6378,
    "overlapLatLong": true,
    "country": "Zambia",
    "latitude_jitter": -17.2471,
    "longitude_jitter": 25.6378
  },
  {
    "detailId": 61,
    "projectCode": "L014",
    "dateStart": 2018,
    "dateEnd": 2025,
    "projectName": "Strengthening climate resilience of agricultural livelihoods in Agro-Ecological Regions I and II in Zambia",
    "projectScale": "National",
    "projectNumLocations": 16,
    "beneficiaryNum": 3000000,
    "beneficiaryNumLog": 6.4771,
    "beneficiaryUnits": "Individuals",
    "budget": 137000000,
    "budgetCurrency": "USD",
    "budgetEuro": 129865040,
    "budgetEuroLog": 8.1135,
    "locationId": "L014.15",
    "locationName": "Sesheke",
    "latitude": -17.1358,
    "longitude": 23.916,
    "overlapLatLong": true,
    "country": "Zambia",
    "latitude_jitter": -17.0459,
    "longitude_jitter": 23.916
  },
  {
    "detailId": 79,
    "projectCode": "L021",
    "dateStart": 2017,
    "dateEnd": 2021,
    "projectName": "Africa Research in Sustainable Intensification for the Next Generation Phase II",
    "projectScale": "Regional",
    "projectNumLocations": 13,
    "beneficiaryNum": null,
    "beneficiaryNumLog": null,
    "beneficiaryUnits": null,
    "budget": 50000000,
    "budgetCurrency": "USD",
    "budgetEuro": 47396000,
    "budgetEuroLog": 7.6757,
    "locationId": "L014.15",
    "locationName": "Sesheke",
    "latitude": -17.1358,
    "longitude": 23.916,
    "overlapLatLong": true,
    "country": "Zambia",
    "latitude_jitter": -17.2257,
    "longitude_jitter": 23.916
  },
  {
    "detailId": 86,
    "projectCode": "L024",
    "dateStart": 2021,
    "dateEnd": 2027,
    "projectName": "Smallholder Agriculture Cluster Project",
    "projectScale": "Subnational",
    "projectNumLocations": 17,
    "beneficiaryNum": 78240,
    "beneficiaryNumLog": 4.8934,
    "beneficiaryUnits": "Households",
    "budget": 67440000,
    "budgetCurrency": "USD",
    "budgetEuro": 63927724.8,
    "budgetEuroLog": 7.8057,
    "locationId": "L024.14",
    "locationName": "UMP",
    "latitude": -17.0169,
    "longitude": 31.976,
    "overlapLatLong": false,
    "country": "Zimbabwe",
    "latitude_jitter": -17.0169,
    "longitude_jitter": 31.976
  },
  {
    "detailId": 116,
    "projectCode": "G059",
    "dateStart": 2016,
    "dateEnd": 2025,
    "projectName": "Promotion of agricultural finance for agri-based enterprises in rural areas in Zambia",
    "projectScale": "Subnational",
    "projectNumLocations": 4,
    "beneficiaryNum": 18200,
    "beneficiaryNumLog": 4.2601,
    "beneficiaryUnits": "Individuals",
    "budget": null,
    "budgetCurrency": null,
    "budgetEuro": null,
    "budgetEuroLog": null,
    "locationId": "G059.2",
    "locationName": "Southern Province",
    "latitude": -16.7346,
    "longitude": 26.6393,
    "overlapLatLong": true,
    "country": "Zambia",
    "latitude_jitter": -16.6447,
    "longitude_jitter": 26.6393
  },
  {
    "detailId": 173,
    "projectCode": "G075",
    "dateStart": 2014,
    "dateEnd": 2024,
    "projectName": "Green Innovation Centres for the Agriculture and Food Sector (GIC) in Zambia",
    "projectScale": "Subnational",
    "projectNumLocations": 2,
    "beneficiaryNum": 1340000,
    "beneficiaryNumLog": 6.1271,
    "beneficiaryUnits": "Individuals",
    "budget": null,
    "budgetCurrency": null,
    "budgetEuro": null,
    "budgetEuroLog": null,
    "locationId": "G059.2",
    "locationName": "Southern Province",
    "latitude": -16.7346,
    "longitude": 26.6393,
    "overlapLatLong": true,
    "country": "Zambia",
    "latitude_jitter": -16.8245,
    "longitude_jitter": 26.6393
  },
  {
    "detailId": 64,
    "projectCode": "L015",
    "dateStart": 2019,
    "dateEnd": 2025,
    "projectName": "Integrated Climate Risk Management for Food Security and Livelihoods in Zimbabwe focusing on Masvingo and Rushinga Districts",
    "projectScale": "National",
    "projectNumLocations": 2,
    "beneficiaryNum": 102000,
    "beneficiaryNumLog": 5.0086,
    "beneficiaryUnits": "Individuals",
    "budget": 10000000,
    "budgetCurrency": "USD",
    "budgetEuro": 9479200,
    "budgetEuroLog": 6.9768,
    "locationId": "L015.2",
    "locationName": "Rushinga",
    "latitude": -16.6386,
    "longitude": 32.2488,
    "overlapLatLong": false,
    "country": "Zimbabwe",
    "latitude_jitter": -16.6386,
    "longitude_jitter": 32.2488
  },
  {
    "detailId": 61,
    "projectCode": "L014",
    "dateStart": 2018,
    "dateEnd": 2025,
    "projectName": "Strengthening climate resilience of agricultural livelihoods in Agro-Ecological Regions I and II in Zambia",
    "projectScale": "National",
    "projectNumLocations": 16,
    "beneficiaryNum": 3000000,
    "beneficiaryNumLog": 6.4771,
    "beneficiaryUnits": "Individuals",
    "budget": 137000000,
    "budgetCurrency": "USD",
    "budgetEuro": 129865040,
    "budgetEuroLog": 8.1135,
    "locationId": "L014.11",
    "locationName": "Gwembe",
    "latitude": -16.5955,
    "longitude": 27.9467,
    "overlapLatLong": false,
    "country": "Zambia",
    "latitude_jitter": -16.5955,
    "longitude_jitter": 27.9467
  },
  {
    "detailId": 86,
    "projectCode": "L024",
    "dateStart": 2021,
    "dateEnd": 2027,
    "projectName": "Smallholder Agriculture Cluster Project",
    "projectScale": "Subnational",
    "projectNumLocations": 17,
    "beneficiaryNum": 78240,
    "beneficiaryNumLog": 4.8934,
    "beneficiaryUnits": "Households",
    "budget": 67440000,
    "budgetCurrency": "USD",
    "budgetEuro": 63927724.8,
    "budgetEuroLog": 7.8057,
    "locationId": "L024.16",
    "locationName": "Mont darwin",
    "latitude": -16.4928,
    "longitude": 31.6476,
    "overlapLatLong": false,
    "country": "Zimbabwe",
    "latitude_jitter": -16.4928,
    "longitude_jitter": 31.6476
  },
  {
    "detailId": 61,
    "projectCode": "L014",
    "dateStart": 2018,
    "dateEnd": 2025,
    "projectName": "Strengthening climate resilience of agricultural livelihoods in Agro-Ecological Regions I and II in Zambia",
    "projectScale": "National",
    "projectNumLocations": 16,
    "beneficiaryNum": 3000000,
    "beneficiaryNumLog": 6.4771,
    "beneficiaryUnits": "Individuals",
    "budget": 137000000,
    "budgetCurrency": "USD",
    "budgetEuro": 129865040,
    "budgetEuroLog": 8.1135,
    "locationId": "L014.10",
    "locationName": "Siavonga",
    "latitude": -16.3905,
    "longitude": 28.5286,
    "overlapLatLong": false,
    "country": "Zambia",
    "latitude_jitter": -16.3905,
    "longitude_jitter": 28.5286
  },
  {
    "detailId": 86,
    "projectCode": "L024",
    "dateStart": 2021,
    "dateEnd": 2027,
    "projectName": "Smallholder Agriculture Cluster Project",
    "projectScale": "Subnational",
    "projectNumLocations": 17,
    "beneficiaryNum": 78240,
    "beneficiaryNumLog": 4.8934,
    "beneficiaryUnits": "Households",
    "budget": 67440000,
    "budgetCurrency": "USD",
    "budgetEuro": 63927724.8,
    "budgetEuroLog": 7.8057,
    "locationId": "L024.17",
    "locationName": "Muzarabahi",
    "latitude": -16.3757,
    "longitude": 31.129,
    "overlapLatLong": false,
    "country": "Zimbabwe",
    "latitude_jitter": -16.3757,
    "longitude_jitter": 31.129
  },
  {
    "detailId": 61,
    "projectCode": "L014",
    "dateStart": 2018,
    "dateEnd": 2025,
    "projectName": "Strengthening climate resilience of agricultural livelihoods in Agro-Ecological Regions I and II in Zambia",
    "projectScale": "National",
    "projectNumLocations": 16,
    "beneficiaryNum": 3000000,
    "beneficiaryNumLog": 6.4771,
    "beneficiaryUnits": "Individuals",
    "budget": 137000000,
    "budgetCurrency": "USD",
    "budgetEuro": 129865040,
    "budgetEuroLog": 8.1135,
    "locationId": "L014.16",
    "locationName": "Mulobezi",
    "latitude": -16.3629,
    "longitude": 24.7978,
    "overlapLatLong": false,
    "country": "Zambia",
    "latitude_jitter": -16.3629,
    "longitude_jitter": 24.7978
  },
  {
    "detailId": 61,
    "projectCode": "L014",
    "dateStart": 2018,
    "dateEnd": 2025,
    "projectName": "Strengthening climate resilience of agricultural livelihoods in Agro-Ecological Regions I and II in Zambia",
    "projectScale": "National",
    "projectNumLocations": 16,
    "beneficiaryNum": 3000000,
    "beneficiaryNumLog": 6.4771,
    "beneficiaryUnits": "Individuals",
    "budget": 137000000,
    "budgetCurrency": "USD",
    "budgetEuro": 129865040,
    "budgetEuroLog": 8.1135,
    "locationId": "L014.13",
    "locationName": "Shangombo",
    "latitude": -16.3251,
    "longitude": 22.1069,
    "overlapLatLong": false,
    "country": "Zambia",
    "latitude_jitter": -16.3251,
    "longitude_jitter": 22.1069
  },
  {
    "detailId": 309,
    "projectCode": "L168",
    "dateStart": 2010,
    "dateEnd": -1,
    "projectName": "Smallholder Dairy Development Project",
    "projectScale": "Subnational",
    "projectNumLocations": 3,
    "beneficiaryNum": 1800,
    "beneficiaryNumLog": 3.2553,
    "beneficiaryUnits": "Farmers",
    "budget": 6700000,
    "budgetCurrency": "USD",
    "budgetEuro": 6351064,
    "budgetEuroLog": 6.8028,
    "locationId": "L168.2",
    "locationName": "Monze",
    "latitude": -16.2357,
    "longitude": 27.3763,
    "overlapLatLong": false,
    "country": "Zambia",
    "latitude_jitter": -16.2357,
    "longitude_jitter": 27.3763
  },
  {
    "detailId": 61,
    "projectCode": "L014",
    "dateStart": 2018,
    "dateEnd": 2025,
    "projectName": "Strengthening climate resilience of agricultural livelihoods in Agro-Ecological Regions I and II in Zambia",
    "projectScale": "National",
    "projectNumLocations": 16,
    "beneficiaryNum": 3000000,
    "beneficiaryNumLog": 6.4771,
    "beneficiaryUnits": "Individuals",
    "budget": 137000000,
    "budgetCurrency": "USD",
    "budgetEuro": 129865040,
    "budgetEuroLog": 8.1135,
    "locationId": "L014.14",
    "locationName": "Senanga",
    "latitude": -16.0909,
    "longitude": 23.7926,
    "overlapLatLong": false,
    "country": "Zambia",
    "latitude_jitter": -16.0909,
    "longitude_jitter": 23.7926
  },
  {
    "detailId": 61,
    "projectCode": "L014",
    "dateStart": 2018,
    "dateEnd": 2025,
    "projectName": "Strengthening climate resilience of agricultural livelihoods in Agro-Ecological Regions I and II in Zambia",
    "projectScale": "National",
    "projectNumLocations": 16,
    "beneficiaryNum": 3000000,
    "beneficiaryNumLog": 6.4771,
    "beneficiaryUnits": "Individuals",
    "budget": 137000000,
    "budgetCurrency": "USD",
    "budgetEuro": 129865040,
    "budgetEuroLog": 8.1135,
    "locationId": "L014.5",
    "locationName": "Chirundu",
    "latitude": -16.0346,
    "longitude": 28.8438,
    "overlapLatLong": false,
    "country": "Zambia",
    "latitude_jitter": -16.0346,
    "longitude_jitter": 28.8438
  },
  {
    "detailId": 61,
    "projectCode": "L014",
    "dateStart": 2018,
    "dateEnd": 2025,
    "projectName": "Strengthening climate resilience of agricultural livelihoods in Agro-Ecological Regions I and II in Zambia",
    "projectScale": "National",
    "projectNumLocations": 16,
    "beneficiaryNum": 3000000,
    "beneficiaryNumLog": 6.4771,
    "beneficiaryUnits": "Individuals",
    "budget": 137000000,
    "budgetCurrency": "USD",
    "budgetEuro": 129865040,
    "budgetEuroLog": 8.1135,
    "locationId": "L014.12",
    "locationName": "Namwala",
    "latitude": -15.9054,
    "longitude": 26.7643,
    "overlapLatLong": false,
    "country": "Zambia",
    "latitude_jitter": -15.9054,
    "longitude_jitter": 26.7643
  },
  {
    "detailId": 309,
    "projectCode": "L168",
    "dateStart": 2010,
    "dateEnd": -1,
    "projectName": "Smallholder Dairy Development Project",
    "projectScale": "Subnational",
    "projectNumLocations": 3,
    "beneficiaryNum": 1800,
    "beneficiaryNumLog": 3.2553,
    "beneficiaryUnits": "Farmers",
    "budget": 6700000,
    "budgetCurrency": "USD",
    "budgetEuro": 6351064,
    "budgetEuroLog": 6.8028,
    "locationId": "L168.1",
    "locationName": "Mazabuka",
    "latitude": -15.8297,
    "longitude": 27.6724,
    "overlapLatLong": false,
    "country": "Zambia",
    "latitude_jitter": -15.8297,
    "longitude_jitter": 27.6724
  },